"esr";"status";"type";"osm_id";"lat";"lon";"name";"alt_name";"old_name";"official_name";"railway";"user"
"010002";"1";"0";"665115765";"61.78421783";"34.34402084";"Петрозаводск-Пассажирский";"";"";"";"station";"010002"
"010318";"1";"0";"370804";"61.88643265";"34.24979401";"Шуйский Мост";"";"";"";"halt";"010318"
"010407";"1";"0";"370656";"61.94111252";"34.25039291";"Шуйская";"";"";"";"station";"010407"
"010411";"1";"0";"1328926694";"61.98009872";"34.24554825";"427 км";"";"";"";"halt";"010411"
"010426";"1";"0";"1424435426";"62.03767776";"34.21403503";"Лучевой";"";"";"";"station";"010426"
"010500";"1";"0";"26919789";"62.11172485";"34.24343872";"Суна";"";"";"";"station";"010500"
"010515";"1";"0";"26904534";"62.06446457";"34.23099136";"437 км";"Лучевой-2";"";"";"station";"010515"
"010604";"1";"0";"26919754";"62.16843796";"34.20512009";"Заделье";"";"";"";"halt";"010604"
"010623";"1";"0";"3417936032";"62.20711136";"34.22889328";"454 км";"";"";"";"halt";""
"010708";"1";"0";"26919691";"62.20932007";"34.27616501";"Кондопога";"";"";"";"station";"010708"
"010712";"1";"0";"3417934261";"62.23991394";"34.43766785";"468 км";"";"";"";"halt";""
"010727";"1";"0";"26918764";"62.26054764";"34.44886398";"Мянсельга";"";"";"";"station";"010727"
"010731";"1";"0";"26918733";"62.29930496";"34.51671219";"Илемсельга";"";"";"";"station";"010731"
"010801";"1";"0";"26918704";"62.36235428";"34.48793793";"Кедрозеро";"";"";"";"station";"010801"
"010816";"1";"0";"3417932494";"62.38610077";"34.47196579";"489 км";"";"";"";"halt";""
"010820";"1";"0";"1424435421";"62.41857147";"34.43115997";"Лижма";"";"";"";"station";"010820"
"010843";"1";"0";"1424435369";"62.58838272";"34.28704453";"Викшезеро";"";"";"";"halt";"010843"
"010854";"1";"0";"1338917317";"62.64903259";"34.25554276";"522 км";"";"";"";"halt";""
"010905";"1";"0";"244602700";"62.22364426";"34.33430481";"Нигозеро";"";"";"";"station";"010905"
"011005";"1";"0";"26919441";"62.6740799";"34.26928329";"Кяппесельга";"";"";"";"station";"011005"
"011015";"1";"0";"1338917333";"62.7390976";"34.3612175";"Уница";"";"";"";"halt";"011015"
"011109";"1";"0";"1424435449";"62.80158234";"34.45722198";"Пергуба";"";"";"";"station";"011109"
"011113";"1";"0";"1424435457";"62.853508";"34.43981934";"Предмедгорский";"";"";"";"station";"011113"
"011202";"1";"0";"1616657817";"62.83857346";"34.46658325";"Прионежская";"";"";"";"station";"011202"
"011306";"1";"0";"26993776";"62.90855408";"34.44932556";"Медвежья Гора";"";"";"";"station";"011306"
"011400";"1";"0";"1424435385";"62.93156433";"34.54547501";"Вичка";"";"";"";"station";"011400"
"011414";"1";"0";"1424435423";"62.98456955";"34.49970627";"Лумбушозеро";"";"";"";"halt";"011414"
"011429";"1";"0";"1424435438";"63.04853439";"34.43111038";"Малыга";"";"";"";"station";"011429"
"011433";"1";"0";"379736";"63.10499573";"34.38787079";"Ванзозеро";"";"";"";"halt";"011433"
"011503";"1";"0";"1616497596";"62.48950958";"34.35131073";"Новый Посёлок";"";"";"";"station";"011503"
"011518";"1";"0";"1424435366";"63.22071075";"34.3466568";"Быстряги";"";"";"";"station";"011518"
"011522";"1";"0";"2154979338";"63.27685547";"34.31671143";"Раменцы";"";"";"";"station";"011522"
"011537";"1";"0";"2154838396";"63.34568024";"34.32598495";"Сумеричи";"";"";"";"station";"011537"
"011541";"1";"0";"386609";"63.15102386";"34.30173492";"Масельская";"";"";"";"station";"011541"
"011715";"1";"0";"26870590";"63.52186966";"34.26821136";"Суглица";"";"";"";"station";"011715"
"011720";"1";"0";"1424435461";"63.60190201";"34.29740906";"Ригозеро";"";"";"";"halt";"011720"
"011749";"1";"0";"26870641";"63.4377327";"34.24414444";"Уросозеро";"";"";"";"station";"011749"
"011804";"1";"0";"4017835695";"63.74424362";"34.30266571";"Сегежа";"";"";"";"station";"011804"
"011819";"1";"0";"676527941";"63.81563568";"34.25279999";"Май-Губа";"";"";"";"station";"011819"
"011908";"1";"0";"2102346776";"63.89356613";"34.26830673";"Надвоицы";"";"";"";"station";"011908"
"011912";"1";"0";"276732361";"63.94480133";"34.23610687";"Шавань";"";"";"";"station";"011912"
"011927";"1";"0";"276732605";"63.98477936";"34.18978119";"704 км";"";"";"";"halt";""
"012008";"1";"0";"1424435410";"64.03502655";"34.24767685";"Кочкома";"";"";"";"station";"012008"
"012101";"1";"0";"676519826";"64.13703918";"34.2457428";"Идель";"";"";"";"station";"012101"
"012116";"1";"0";"276733367";"64.22820282";"34.30392838";"Тунгуда";"";"";"";"station";"012116"
"012205";"1";"1";"206187941";"64.30207825";"34.41853714";"Летний";"";"";"";"station";""
"012205";"1";"0";"2002865725";"64.30197906";"34.4192009";"Летний";"";"";"";"station";"012205"
"012210";"1";"0";"276733592";"64.36571503";"34.42908859";"Кильбо";"";"";"";"halt";"012210"
"012309";"1";"0";"276733626";"64.4311676";"34.46925354";"Сосновец";"";"";"";"station";"012309"
"012313";"1";"0";"5266612278";"64.49071503";"34.57571411";"Уда";"";"";"";"station";"012313"
"012328";"1";"0";"676517416";"64.51644135";"34.66435623";"Горелый Мост";"";"";"";"station";"012328"
"012397";"1";"0";"276635434";"63.85428619";"36.46100235";"Маленьга";"";"";"";"station";"012397"
"012510";"1";"0";"1616557186";"63.97019196";"36.1122818";"Руйга";"";"";"";"station";"012510"
"012525";"1";"0";"276635284";"64.0137558";"36.00450134";"Вирандозеро";"";"";"";"halt";"012525"
"012544";"1";"0";"276635372";"63.90993118";"36.25744629";"Нюхча";"";"";"";"station";"012544"
"012614";"1";"0";"276635224";"64.11831665";"35.72761536";"Колежма";"";"";"";"station";"012614"
"012629";"1";"0";"276635159";"64.19023895";"35.55460358";"Тегозеро";"";"";"";"station";"012629"
"012633";"1";"0";"276635253";"64.04734039";"35.91553879";"Ухтица";"";"";"";"station";"012633"
"012703";"1";"0";"276635071";"64.24757385";"35.39093781";"Сумский Посад";"";"";"";"station";"012703"
"012718";"1";"0";"1425068823";"64.32012939";"35.24569321";"Вирма";"";"";"";"station";"012718"
"012722";"1";"0";"276634958";"64.39041138";"35.00601959";"Сухое";"";"";"";"station";"012722"
"012737";"1";"0";"276634883";"64.47144318";"34.78826904";"Шижня";"";"";"";"station";"012737"
"012741";"1";"0";"2160191219";"64.50848389";"34.72225189";"Выг";"";"";"";"station";"012741"
"012782";"1";"0";"3417773995";"64.48648834";"34.75692749";"14 км";"";"";"";"halt";""
"012794";"1";"0";"3417772997";"64.51703644";"34.69688416";"9 км";"";"";"";"halt";""
"013000";"1";"0";"1280208197";"64.54123688";"34.77540207";"Беломорск";"";"";"";"station";"013000"
"013015";"1";"0";"1616514281";"64.66259766";"34.80079269";"Заливы";"";"";"";"halt";"013015"
"013119";"1";"0";"276735030";"64.86296082";"34.6701889";"Мягрека";"";"";"";"station";"013119"
"013123";"1";"0";"276734544";"64.73918915";"34.69934082";"Шуерецкая";"";"";"";"station";"013123"
"013138";"1";"0";"5268123925";"64.76509094";"34.6460228";"813 км";"";"";"";"halt";""
"013142";"1";"0";"1616514282";"64.61907959";"34.7894516";"791 км";"";"";"";"halt";""
"013157";"1";"0";"7541310036";"64.80710602";"34.65005112";"818 км";"";"";"";"halt";""
"013208";"1";"0";"8257618077";"64.95523834";"34.57009506";"Кемь";"";"";"";"station";"013208"
"013212";"1";"0";"276736462";"65.02304077";"34.61935425";"846 км";"";"";"";"halt";"013212"
"013227";"1";"0";"4333789344";"65.08992767";"34.58300018";"Ламбино";"";"";"";"station";""
"013231";"1";"0";"1392155393";"65.24330139";"34.4650383";"Поньгома";"";"";"";"station";"013231"
"013246";"1";"0";"276738066";"65.30200195";"34.36745834";"883 км";"";"";"";"halt";"013246"
"013250";"1";"0";"1418018383";"64.99028015";"34.78656769";"Кемь-Пристань";"";"";"";"station";"013250"
"013265";"1";"0";"276737211";"65.16005707";"34.53549576";"863 км";"";"";"";"halt";""
"013509";"1";"0";"276738212";"65.35386658";"34.26403427";"Кузема";"";"";"";"station";"013509"
"013513";"1";"0";"1424435389";"65.42424011";"34.26745987";"Воньга";"";"";"";"halt";"013513"
"013528";"1";"0";"1424435462";"65.57349396";"34.20231628";"Сиг";"";"";"";"station";"013528"
"013570";"1";"0";"276739625";"65.71881104";"34.05354691";"935 км";"";"";"";"halt";""
"013602";"1";"0";"683061225";"65.7900238";"33.9444313";"Энгозеро";"";"";"";"station";"013602"
"013617";"1";"0";"276755476";"65.84147644";"33.82757568";"957 км";"";"";"";"halt";""
"013706";"1";"0";"276756095";"65.89768982";"33.70964432";"Амбарный";"";"";"";"station";"013706"
"013710";"1";"0";"276756570";"65.96250153";"33.35416794";"Боярская";"";"";"";"station";"013710"
"013725";"1";"0";"3416675234";"65.9485321";"33.4318924";"981 км";"";"";"";"halt";""
"013801";"1";"0";"276757167";"66.07538605";"33.05914307";"Лоухи";"";"";"";"station";""
"013829";"1";"0";"276758030";"66.19783783";"32.90111923";"Кереть";"";"";"";"station";"013829"
"013903";"1";"0";"1616681527";"66.0042572";"32.38169479";"Еловая";"";"";"";"station";"013903"
"014003";"1";"0";"1616681535";"65.89790344";"31.83423615";"Кестеньга";"";"";"";"station";"014003"
"014215";"1";"0";"3416175950";"66.74150085";"32.48669815";"Гангос";"";"";"";"halt";""
"014226";"1";"0";"276762869";"66.84133911";"32.34464264";"1118 км";"";"";"";"halt";""
"014304";"1";"0";"276758443";"66.26634979";"32.9666748";"Чупа";"";"";"";"station";"014304"
"014319";"1";"0";"1424435408";"66.30760193";"32.92889023";"Котозеро";"";"";"";"halt";"014319"
"014338";"1";"0";"276759738";"66.43583679";"32.85043716";"Полярный Круг";"";"";"";"station";"014338"
"014342";"1";"0";"276761312";"66.68553162";"32.66383743";"1093 км";"";"";"";"halt";""
"014357";"1";"0";"4866950040";"66.58660126";"32.80942154";"Пояконда";"";"";"";"station";""
"014361";"1";"0";"276760992";"66.63955688";"32.74801254";"Лесной";"";"";"";"halt";"014361"
"014376";"1";"0";"937887891";"66.71188354";"32.63928986";"Ковда";"";"";"";"station";"014376"
"014408";"1";"0";"683205028";"66.81972504";"32.35462952";"Княжая";"";"";"";"station";"014408"
"014431";"1";"0";"937914024";"66.92337799";"32.20843506";"Жемчужная";"";"";"";"halt";"014431"
"014450";"1";"0";"276764262";"67.00610352";"32.19226074";"Ручьи-Карельские";"";"";"";"station";"014450"
"014465";"1";"0";"276764455";"67.03540039";"32.2036171";"о.п. 1147 км";"";"";"";"halt";"014465"
"014516";"1";"0";"611407355";"66.98516083";"32.1356926";"Кирки";"";"";"";"halt";"014516"
"014520";"1";"0";"1619941218";"66.99833679";"32.00342178";"11 км";"";"";"";"halt";"014520"
"014535";"1";"0";"1619941222";"67.00841522";"31.92126465";"16 км";"";"";"";"halt";"014535"
"014545";"1";"0";"611407223";"67.00795746";"31.85344505";"Вуд-Озеро";"";"";"";"halt";"014545"
"014554";"1";"0";"611407219";"67.01066589";"31.83312035";"20 км";"";"";"";"halt";"014554"
"014569";"1";"0";"1619941223";"66.99758148";"31.71718216";"26 км";"";"";"";"halt";"014569"
"014573";"1";"0";"1526967143";"66.95980835";"31.66632843";"Будасси";"";"";"";"halt";"014573"
"014611";"1";"0";"611407070";"66.96260834";"31.45433807";"Ням-Озеро";"";"";"";"station";"014611"
"014624";"1";"0";"611407020";"66.9364624";"31.27833748";"Тованд";"";"";"";"halt";"014624"
"014639";"1";"0";"611406954";"66.95181274";"31.14889526";"57 км";"";"";"";"halt";"014639"
"014643";"1";"0";"611406837";"66.96754456";"31.02889824";"Капраево";"";"";"";"halt";"014643"
"014658";"1";"0";"611406764";"66.97021484";"30.96684647";"62 км";"";"";"";"halt";"014658"
"014677";"1";"0";"1619940812";"66.97664642";"30.63753319";"Войта";"";"";"";"halt";"014677"
"014681";"1";"0";"1619941226";"66.95980072";"30.47351456";"93 км";"";"";"";"halt";"014681"
"014709";"1";"0";"1041162860";"66.96334076";"30.34160614";"Алакуртти";"";"";"";"station";"014709"
"014802";"1";"0";"276765074";"67.08101654";"32.26623154";"Белое Море";"";"";"";"station";"014802"
"014817";"1";"0";"1529424155";"67.10503387";"32.25590897";"1157 км";"";"";"";"halt";"014817"
"014821";"1";"0";"276765907";"67.14674377";"32.27391052";"Проливы";"";"";"";"station";""
"014906";"1";"0";"1652244511";"67.16020966";"32.41910172";"Кандалакша";"";"";"";"station";"014906"
"014930";"1";"0";"1421752670";"67.24208832";"32.42760468";"Плесозеро";"1182 км";"";"";"halt";"014930"
"014944";"1";"0";"276767088";"67.27738953";"32.45306396";"1186 км";"";"";"";"halt";"014944"
"014959";"1";"0";"1529392922";"67.29837036";"32.47212982";"1189 км";"Нивский";"";"";"halt";"014959"
"014963";"1";"0";"276766937";"67.22274017";"32.43207932";"1180 км";"";"";"";"halt";""
"015102";"1";"0";"276767255";"67.31718445";"32.49833679";"Пинозеро";"";"";"";"station";"015102"
"015114";"1";"0";"1616428107";"67.34902954";"32.29129028";"Червас";"";"";"";"halt";"015114"
"015133";"1";"0";"632002408";"67.49334717";"31.90638351";"Уполокша";"";"";"";"station";"015133"
"015152";"1";"0";"1624802230";"67.57423401";"31.38875198";"Калюжный";"Колюжный";"";"";"halt";"015152"
"015171";"1";"0";"1614390169";"67.38739777";"32.1379509";"19 км";"";"";"";"station";""
"015203";"1";"0";"1616846887";"67.5812912";"31.1423893";"Ёна";"";"";"";"station";"015203"
"015345";"1";"0";"1376100374";"67.51151276";"30.72481918";"105 км";"Лейпи";"";"";"halt";""
"015400";"1";"0";"1245464207";"67.54933167";"30.48161125";"Ковдор";"";"";"";"station";"015400"
"015504";"1";"0";"935558807";"67.3732605";"32.48715973";"Полярные Зори";"";"";"";"station";"015504"
"015519";"1";"0";"937914035";"67.41060638";"32.61083984";"Восточная Губа";"";"";"";"halt";"015519"
"015608";"1";"0";"276768726";"67.44267273";"32.77815628";"Африканда";"";"";"";"station";"015608"
"015612";"1";"0";"935513726";"67.43166351";"32.99613953";"Хабозеро";"";"";"";"halt";"015612"
"015627";"1";"0";"3239488020";"67.45955658";"33.18715668";"Питкуль";"";"";"";"halt";"015627"
"015631";"1";"0";"635753172";"67.56429291";"33.36981583";"Апатиты 1";"";"";"";"station";"015631"
"015646";"1";"0";"3416154016";"67.6016922";"33.37147903";"1268 км";"";"";"";"station";"015646"
"015650";"1";"0";"8492221587";"67.54772186";"33.39494705";"Апатиты-Сортировочная";"";"";"";"station";""
"015716";"1";"0";"477551224";"67.57054138";"33.41749191";"3 км";"";"";"";"halt";"015716"
"015720";"1";"0";"4780924546";"67.38118744";"32.54050064";"Нива";"";"";"";"station";""
"015735";"1";"0";"1528721636";"67.56421661";"33.49764633";"7 км";"";"";"";"halt";"015735"
"015740";"1";"0";"944690286";"67.55541992";"33.60768127";"12 км";"";"";"";"halt";"015740"
"015805";"1";"0";"944690549";"67.56137848";"33.62499237";"Титан";"";"";"";"station";"015805"
"016009";"1";"0";"1194364378";"67.59225464";"33.42045975";"Апатиты-2";"";"";"";"station";"016009"
"016013";"1";"0";"3416157742";"67.52565765";"33.38106918";"1256 км";"";"";"";"halt";""
"016121";"1";"0";"937914065";"67.67337799";"33.21194839";"Хибины";"";"";"";"station";"016121"
"016136";"1";"0";"937914067";"67.76690674";"33.18967056";"Нефелиновые Пески";"";"";"";"station";"016136"
"016140";"1";"0";"937914133";"67.8522644";"33.25865173";"Имандра";"";"";"";"station";"016140"
"016155";"1";"0";"1375018575";"67.81730652";"33.20023346";"1297 км";"";"";"";"halt";""
"016210";"1";"0";"267213786";"67.87563324";"33.29347229";"1303 км";"";"";"";"halt";"016210"
"016225";"1";"0";"631467967";"67.94339752";"33.33468246";"Рудный";"";"";"";"halt";"016225"
"016231";"1";"0";"937914258";"67.99667358";"33.39471054";"Куна";"";"";"";"station";"016231"
"016244";"1";"0";"267213737";"68.04699707";"33.36455536";"Ягельный Бор";"";"";"";"station";"016244"
"016259";"1";"0";"3416148006";"68.10601807";"33.31924438";"1333 км";"";"";"";"halt";""
"016308";"1";"0";"2001649838";"68.13611603";"33.31286621";"Оленегорск";"";"";"";"station";""
"016314";"1";"0";"1529240690";"68.08947754";"33.27084351";"6 км";"";"";"";"halt";"016314"
"016329";"1";"0";"1529240687";"68.04249573";"33.21574402";"12 км";"";"";"";"halt";"016329"
"016333";"1";"0";"1529240688";"68.02867889";"33.14848328";"16 км";"";"";"";"halt";"016333"
"016348";"1";"0";"1529240689";"67.98519897";"32.98561478";"25 км";"";"";"";"halt";"016348"
"016352";"1";"0";"609147565";"67.96859741";"32.94327545";"27 км";"";"";"";"halt";"016352"
"016403";"1";"0";"606432976";"67.95163727";"32.87471008";"Мончегорск";"";"";"";"station";"016403"
"016600";"1";"0";"4017600975";"68.27259827";"33.32600403";"Лапландия";"";"";"";"station";"016600"
"016627";"1";"0";"3958071135";"68.35838318";"33.29750824";"Пулозеро";"";"";"";"station";"016627"
"016634";"1";"0";"267214698";"68.20334625";"33.3311348";"1340 км";"";"";"";"halt";"016634"
"016719";"1";"0";"4004534893";"68.43496704";"33.34758759";"Тайбола";"";"";"";"station";"016719"
"016738";"1";"0";"1234928967";"68.57809448";"33.17561722";"1391 км";"";"";"";"halt";""
"016742";"1";"0";"985859056";"68.51278687";"33.18435287";"Кица";"";"";"";"station";"016742"
"016757";"1";"0";"986084896";"68.63661957";"33.21894836";"Лопарская";"";"";"";"halt";"016757"
"016761";"1";"0";"981736074";"68.46886444";"33.19729996";"1381 км";"";"";"";"halt";""
"016812";"1";"0";"1183472761";"68.69873047";"33.1228447";"1410 км";"";"";"";"halt";"016812"
"016827";"1";"0";"1529371343";"68.73749542";"33.13491821";"1417 км";"";"";"";"halt";"016827"
"016831";"1";"0";"985070598";"68.67992401";"33.12649155";"Магнетиты";"";"";"";"station";"016831"
"016916";"1";"0";"267214437";"68.79421234";"33.09876633";"1425 км";"";"";"";"halt";"016916"
"016920";"1";"0";"75363675";"68.83666992";"33.08206558";"Выходной";"";"";"";"station";"016920"
"016935";"1";"0";"1529352540";"68.84741211";"33.0502243";"1434 км";"";"";"";"halt";"016935"
"016946";"1";"0";"75362225";"68.87870789";"33.034832";"1437 км";"";"";"";"halt";""
"016954";"1";"0";"267214468";"68.75344086";"33.16016006";"Шонгуй";"";"";"";"halt";"016954"
"017001";"1";"0";"1031873979";"68.88895416";"33.05109406";"Кола";"";"";"";"station";"017001"
"017016";"1";"0";"937457219";"68.84831238";"32.9320488";"9 км";"";"";"";"halt";"017016"
"017035";"1";"0";"75365035";"68.90068054";"33.06226349";"1439 км";"";"";"";"halt";"017035"
"017041";"1";"0";"75360096";"68.9151001";"33.06347275";"1441 км";"";"";"";"halt";"017041"
"017054";"1";"0";"75360707";"68.92475128";"33.05158234";"1443 км";"";"";"";"halt";"017054"
"017073";"1";"0";"1056147862";"68.94907379";"33.04384232";"1446 км";"";"";"";"halt";"017073"
"017088";"1";"0";"75363524";"68.96704102";"33.0635643";"1448 км";"";"";"";"halt";"017088"
"017105";"1";"0";"1039278192";"68.81989288";"32.81881332";"Мурмаши";"";"";"";"station";"017105"
"017118";"1";"0";"941962809";"68.83543396";"32.78437042";"Тулома";"";"";"";"halt";"017118"
"017139";"1";"0";"1528792421";"69.00197601";"32.22075653";"54 км";"";"";"";"halt";"017139"
"017143";"1";"0";"961818096";"69.05466461";"32.17777634";"61 км";"";"";"";"halt";"017143"
"017158";"1";"0";"1423139632";"68.84860229";"32.68978882";"23 км";"";"";"";"halt";"017158"
"017302";"1";"0";"1097177723";"68.96932983";"32.45413589";"Пяйве";"";"";"";"station";""
"017410";"1";"0";"1028840709";"69.10163116";"31.94211388";"75 км";"";"";"";"halt";"017410"
"017425";"1";"0";"303975008";"69.1339798";"31.80031967";"85 км";"";"";"";"halt";"017425"
"017437";"1";"0";"1028839890";"69.15981293";"31.72569656";"90 км";"";"";"";"halt";"017437"
"017444";"1";"0";"1526835572";"69.18934631";"31.69349289";"Моккет";"";"";"";"station";"017444"
"017459";"1";"0";"1028841151";"69.26817322";"31.24523163";"Титовка";"";"";"";"station";"017459"
"017463";"1";"0";"1528822499";"69.20045471";"31.5698967";"101 км";"";"";"";"halt";"017463"
"017478";"1";"0";"1528838047";"69.21392822";"31.38901329";"109 км";"";"";"";"halt";"017478"
"017482";"1";"0";"5398693915";"69.07833862";"32.12320709";"Нял";"";"";"";"station";""
"017904";"1";"0";"1526888125";"69.39984894";"31.10557938";"Луостари";"";"";"";"station";"017904"
"017919";"1";"0";"1526888128";"69.38379669";"30.99162483";"Семужная";"";"";"";"halt";"017919"
"017923";"1";"0";"1509962113";"69.43286133";"31.12463951";"5 км";"";"";"";"halt";"017923"
"018023";"1";"0";"991555540";"69.50941467";"31.16312027";"Печенга";"";"";"";"station";""
"018108";"1";"0";"1358244380";"69.4080658";"30.79452324";"Заполярная";"";"";"";"station";"018108"
"018201";"1";"0";"2847857804";"69.42014313";"30.25650215";"Никель-Мурманский";"";"";"";"station";"018201"
"018409";"1";"0";"75362899";"68.97197723";"33.06923676";"Мурманск";"";"";"";"station";"018409"
"018413";"1";"0";"75362041";"68.98694611";"33.06925583";"2 км";"";"";"";"halt";"018413"
"018428";"1";"0";"1621251859";"68.9947052";"33.05777359";"3 км";"";"";"";"halt";"018428"
"018432";"1";"0";"1614148331";"67.33569336";"32.43885422";"4 км";"";"";"";"station";""
"018432";"1";"0";"75360010";"69.00372314";"33.06160736";"4 км";"";"";"";"halt";"018432"
"018447";"1";"0";"75365894";"69.0107193";"33.08005905";"5 км";"";"";"";"halt";"018447"
"018606";"1";"0";"75364418";"69.01953125";"33.09741592";"Комсомольск-Мурманский";"";"";"";"station";"018606"
"018818";"1";"0";"614620957";"69.04010773";"33.28680038";"Сафоново-Мурманское";"";"";"";"halt";"018818"
"019007";"1";"0";"614604255";"69.05487061";"33.37707901";"Ваенга";"";"";"";"station";"019007"
"020004";"1";"0";"8487394033";"60.71576309";"28.75189209";"Выборг";"";"";"";"station";"020004"
"020019";"1";"0";"5064126769";"60.71714783";"28.77988434";"2 км";"";"";"";"halt";"020019"
"020038";"1";"0";"3683023341";"60.76356125";"28.88373756";"Пальцево";"";"";"";"halt";"020038"
"020042";"1";"0";"3683029276";"60.76984024";"28.89940262";"12 км";"";"";"";"halt";"020042"
"020057";"1";"0";"3683029277";"60.77270126";"28.91271973";"13 км";"";"";"";"halt";"020057"
"020061";"1";"0";"224845097";"60.7987175";"28.95726395";"Гвардейское";"";"";"";"station";"020061"
"020076";"1";"0";"1303202470";"60.80451965";"28.95234489";"Пионерлагерь";"";"";"";"halt";"020076"
"020080";"1";"0";"8491782413";"60.83449173";"28.95010757";"21 км";"";"";"";"halt";"020080"
"020201";"1";"0";"356057963";"60.36930847";"28.77464867";"Ермилово";"";"Humaljoki";"";"station";"020201"
"020305";"1";"0";"148094220";"60.36528778";"28.62993431";"Приморск";"";"Koivisto";"";"station";"020305"
"020310";"1";"0";"1264749334";"59.46469498";"33.81903076";"Бор";"";"";"";"station";""
"020310";"1";"0";"2438845303";"60.41981888";"28.67873192";"Бор";"";"";"";"halt";"020310"
"020409";"1";"0";"66312593";"60.45278931";"28.71517181";"Прибылово";"";"";"";"station";"020409"
"020502";"1";"0";"65005973";"60.5285759";"28.69012642";"Советский";"";"";"";"station";"020502"
"020517";"1";"0";"2012627811";"60.58598709";"28.71549797";"Попово";"";"";"";"station";"020517"
"020521";"1";"0";"6487711475";"60.60957718";"28.74501419";"Матросово";"";"";"";"halt";"020521"
"020536";"1";"0";"65009200";"60.65351868";"28.76625824";"Соколинское";"";"";"";"halt";"020536"
"020610";"1";"0";"65007377";"60.5830574";"28.68438339";"Пихтовая";"";"";"";"station";"020610"
"020610";"1";"0";"1327815845";"60.5993042";"28.61256599";"Пихтовое";"";"";"";"halt";"020610"
"020625";"1";"0";"1327815846";"60.59176636";"28.64811897";"Щербаково";"";"";"";"halt";"020625"
"020803";"1";"0";"389882455";"60.46739197";"29.28494072";"Кирилловское";"";"";"";"station";"020803"
"020818";"1";"0";"5742168983";"60.55157852";"29.15485954";"Лейпясуо";"";"";"";"halt";"020818"
"020907";"1";"0";"5744733817";"60.5910759";"29.04432487";"Гаврилово";"";"";"";"station";"020907"
"020911";"1";"0";"5748002707";"60.62778473";"28.95620918";"Лебедевка";"";"Honkaniemi";"";"halt";"020911"
"020926";"1";"0";"5748009867";"60.64419556";"28.91805267";"117 км";"";"";"";"halt";"020926"
"020930";"1";"0";"2011157210";"60.69051743";"28.81615639";"Лазаревка";"";"";"";"halt";"020930"
"021007";"1";"0";"2014636356";"60.73270798";"28.80540657";"Таммисуо";"";"";"";"station";"021007"
"021204";"1";"0";"5748017918";"60.66047668";"28.88162994";"Верхне-Черкасово";"";"Säiniö";"";"station";"021204"
"021312";"1";"0";"1494417433";"60.77313614";"28.57383537";"Кравцово";"";"";"";"halt";"021312"
"021327";"2";"0";"6468479897";"59.7645607";"32.8563118";"158 км";"";"";"";"halt";""
"021327";"1";"0";"1110478433";"60.75865936";"28.62553215";"138 км";"";"";"";"halt";"021327"
"021331";"1";"0";"1327565008";"60.80596924";"28.47686386";"Лужайка";"";"";"";"station";"021331"
"021346";"2";"0";"8561258689";"60.78515244";"28.53927231";"144 км";"";"";"";"station";""
"021505";"1";"0";"293905407";"60.75214386";"28.65021706";"Пригородная";"";"";"";"station";"021505"
"021609";"1";"0";"245429669";"60.85997772";"28.94752502";"Возрождение";"";"";"";"station";"021609"
"021613";"1";"0";"245429690";"60.91891861";"28.97213173";"Ханнила";"";"Hannila";"";"station";"021613"
"021628";"1";"0";"245429326";"60.93809128";"29.00465584";"Никифоровское";"";"Rahikkala";"";"halt";"021628"
"021632";"1";"0";"2523342335";"60.96039963";"29.07606125";"38 км";"";"";"";"halt";"021632"
"021702";"1";"0";"245428839";"60.9619751";"29.1083889";"Каменногорск";"";"Antrea";"";"station";"021702"
"021721";"1";"0";"2523342336";"61.00471497";"29.39776611";"59 км";"Лениярви";"";"";"halt";"021721"
"021806";"1";"0";"280430227";"61.11769485";"28.84592247";"Светогорск";"";"Enso";"";"station";"021806"
"021810";"1";"0";"1347843341";"61.086586";"28.90491295";"Кивиоя";"";"";"";"halt";"021810"
"022007";"1";"0";"282252238";"61.04912567";"28.92511559";"Лесогорский";"";"";"";"station";"022007"
"022103";"1";"0";"282252386";"61.01275635";"29.03441811";"Пруды";"";"";"";"station";"022103"
"022122";"2";"0";"5532820444";"60.99104691";"29.09818649";"5 км";"";"";"";"station";""
"022226";"2";"0";"3749318720";"59.43826675";"33.03925323";"59 км";"";"";"";"halt";""
"022300";"1";"0";"245427906";"61.0190239";"29.41582489";"Бородинское";"";"";"";"station";"022300"
"022315";"1";"0";"279220639";"61.05994034";"29.4389782";"Инкиля";"";"";"";"halt";"022315"
"022326";"1";"0";"282096382";"61.09786987";"29.50951004";"Хаколахти";"";"";"";"halt";"022326"
"022334";"1";"0";"245427483";"61.14548874";"29.56900597";"Ояярви";"";"";"";"station";"022334"
"022349";"1";"0";"245427241";"61.18806839";"29.57033157";"Пукинниеми";"";"";"";"halt";"022349"
"022353";"1";"0";"245420310";"61.44209671";"29.81713867";"199 км";"";"";"";"halt";"022353"
"022368";"1";"0";"8498309435";"61.38697052";"29.75471306";"192 км";"";"";"";"halt";"022368"
"022404";"1";"0";"1327881343";"61.23551178";"29.6879158";"Хийтола";"";"";"";"station";"022404"
"022419";"1";"0";"291558819";"61.25185013";"29.69153595";"Хауккаваара";"176 км";"";"";"halt";"022419"
"022423";"1";"0";"886826314";"61.32156372";"29.72483444";"Алхо";"";"";"";"halt";"022423"
"022508";"1";"0";"279636631";"60.96175766";"29.24504089";"Боровинка";"";"";"";"station";"022508"
"022616";"1";"0";"4190942295";"60.68520737";"30.00359154";"Лосево";"";"";"";"halt";"022616"
"022635";"1";"0";"530790888";"60.58889389";"30.1764431";"79 км";"";"78 км";"";"halt";"022635"
"022645";"1";"0";"442723847";"60.63170242";"30.11213875";"Петяярви";"";"";"";"station";"022645"
"022654";"1";"0";"2341199442";"60.66573334";"30.03587914";"Лосево-1";"";"";"";"station";"022654"
"022705";"1";"0";"722089743";"60.72546387";"30.07390213";"Громово";"";"";"";"station";"022705"
"022711";"1";"0";"272290127";"60.76960373";"30.14072609";"Суходолье";"";"";"";"halt";"022711"
"022813";"1";"0";"371090708";"60.82505417";"30.12957382";"Отрадное";"";"";"";"station";"022813"
"022902";"1";"0";"245419167";"60.9076767";"30.08004951";"Мюллюпельто";"";"";"";"station";"022902"
"022917";"1";"0";"950503095";"60.95097351";"30.09226418";"Синёво";"";"";"";"halt";"022917"
"023002";"1";"0";"2012486876";"61.0358696";"30.10265541";"Приозерск";"";"";"";"station";"023002"
"023017";"1";"0";"264001502";"61.06712723";"29.98828697";"Капеасалми";"148 км";"";"";"halt";"023017"
"023106";"1";"0";"1794933346";"61.11316681";"29.87439156";"Кузнечное";"";"";"";"station";"023106"
"023110";"1";"0";"291557991";"61.20301819";"29.73833656";"168 км";"";"";"";"halt";"023110"
"023125";"1";"0";"3703801457";"61.18334579";"29.76975822";"165 км";"";"";"";"halt";""
"023202";"1";"0";"1984072626";"61.41191101";"29.76240349";"Элисенваара";"";"";"";"station";"023202"
"023214";"1";"0";"245420620";"61.46135712";"29.87077522";"Аккахарью";"";"";"";"halt";"023214"
"023229";"1";"0";"1327881338";"61.49648285";"30.00032806";"Ихала";"";"";"";"station";"023229"
"023604";"1";"0";"1668871268";"61.5165596";"30.13059998";"Яккима";"";"";"";"station";"023604"
"023619";"1";"0";"1578617699";"61.55082321";"30.19127274";"Хухоямяки";"";"";"";"halt";"023619"
"023638";"1";"0";"1984072625";"61.61237717";"30.27288246";"Нива";"";"";"";"halt";"023638"
"023642";"1";"0";"245423977";"61.6532135";"30.37856102";"Куокканиеми";"";"";"";"station";"023642"
"023661";"1";"0";"245424389";"61.68230057";"30.56311035";"Туокслахти";"";"";"";"halt";"023661"
"023708";"1";"0";"1014538008";"61.69484711";"30.67456436";"Сортавала";"";"";"";"station";"023708"
"023801";"1";"0";"1639038907";"61.74423981";"30.66929245";"Хелюля";"";"";"";"station";"023801"
"023816";"1";"0";"1580972963";"61.80595398";"30.59871674";"Рюттю";"";"";"";"halt";"023816"
"023905";"1";"0";"364533468";"61.89603043";"30.50342941";"Кааламо";"";"";"";"station";"023905"
"024005";"1";"0";"2002893280";"61.96747589";"30.53711319";"Маткаселькя";"";"";"";"station";"024005"
"024109";"1";"0";"1581017421";"62.16742706";"30.64453506";"Вяртсиля";"";"";"";"station";"024109"
"024113";"1";"0";"2002915412";"62.10910416";"30.5866642";"Пялькьярви";"";"";"";"halt";""
"024128";"1";"0";"364533428";"62.07566452";"30.5682373";"Пяльксаари";"";"";"";"halt";"024128"
"024408";"1";"1";"220031721";"60.9882431";"32.96352386";"Олонец";"";"";"";"station";""
"024414";"1";"0";"611260384";"60.81487656";"33.33693314";"Инема";"";"";"";"halt";"024414"
"024429";"1";"0";"611260308";"61.00067139";"32.82998657";"Тукса";"";"";"";"halt";"024429"
"024522";"1";"0";"1620387852";"61.11831665";"32.56305313";"Тулокса";"";"";"";"halt";"024522"
"024607";"1";"0";"611260390";"61.18410873";"32.38723373";"Видлица";"";"";"";"station";"024607"
"024611";"1";"0";"611260216";"61.23550034";"32.21020126";"Погранкондуши";"";"";"";"halt";"024611"
"024700";"1";"0";"1203813399";"61.37395859";"31.84132195";"Салми";"";"";"";"station";"024700"
"024727";"1";"0";"1620387853";"61.50027084";"31.6028614";"Иля-Ууксу";"";"";"";"halt";"024727"
"024734";"1";"0";"1620387849";"61.50794601";"31.58229065";"Иля-Ууксу";"";"";"";"halt";"024734"
"024804";"1";"0";"1014545711";"61.57395554";"31.46224594";"Питкяранта";"";"";"";"station";"024804"
"024819";"1";"0";"1330922133";"61.65098572";"31.41770363";"Койриноя";"";"";"";"halt";"024819"
"024908";"1";"0";"1620290156";"61.68035889";"31.26125336";"Леппясилта";"";"";"";"station";"024908"
"025008";"1";"0";"1620290157";"61.76086807";"30.98909569";"Ляскеля";"";"";"";"station";"025008"
"025101";"1";"0";"611332405";"61.81689835";"30.9324379";"Харлу";"";"";"";"halt";"025101"
"025120";"1";"0";"611332756";"61.89091492";"30.94782829";"Янисъярви";"";"";"";"station";"025120"
"025135";"1";"0";"1580972954";"61.92477798";"30.8343811";"Алалампи";"";"";"";"halt";"025135"
"025309";"1";"0";"1424435483";"61.87795258";"34.08392334";"Чална-Онежская";"";"";"";"station";"025309"
"025313";"1";"0";"610906617";"61.87704849";"33.84524918";"509 км";"";"";"";"halt";"025313"
"025328";"1";"0";"1424435447";"61.86514664";"33.91668701";"Падозеро";"";"";"";"station";""
"025417";"1";"0";"929910145";"61.86733246";"33.5452919";"Кутижма";"";"";"";"station";"025417"
"025421";"1";"0";"1424435471";"61.86861801";"33.33787537";"Сяньга";"";"";"";"station";"025421"
"025436";"1";"0";"610906405";"61.88871765";"33.71274185";"Виллагора";"";"";"";"station";"025436"
"025506";"1";"0";"611260477";"61.84416199";"33.21437836";"Эссойла";"";"";"";"station";"025506"
"025603";"1";"0";"928097036";"61.84601212";"33.08821106";"Иматозеро";"";"";"";"station";"025603"
"025703";"1";"0";"928096350";"61.83368683";"32.94664764";"Новые Пески";"";"";"";"station";"025703"
"025718";"1";"0";"928096345";"61.8898468";"32.77358246";"Застава";"";"";"";"station";"025718"
"025737";"1";"0";"1620174733";"61.98838806";"32.63640976";"Хаутаваара";"";"";"";"station";"025737"
"025756";"1";"0";"1620174713";"62.03145218";"32.47212219";"Веркко";"";"";"";"station";"025756"
"025807";"1";"0";"1089067757";"62.0826416";"32.34139633";"Суоярви 1";"Суоярви I";"";"";"station";"025807"
"025811";"1";"0";"1620174725";"62.04546738";"32.17103958";"Паперо";"";"";"";"halt";"025811"
"025900";"1";"0";"1621269941";"62.03116608";"32.09983063";"Пийтсиеки";"";"";"";"station";"025900"
"025915";"1";"0";"611332932";"62.01758957";"32.00352478";"Няятяоя";"";"";"";"halt";"025915"
"026000";"1";"0";"1620174720";"61.97844315";"31.74139404";"Лоймола";"";"";"";"station";"026000"
"026104";"1";"0";"1620174730";"61.92153168";"31.54512978";"Райконкоски";"";"";"";"station";"026104"
"026119";"1";"0";"611332524";"61.86717606";"31.40041733";"346 км";"";"";"";"halt";"026119"
"026212";"1";"0";"611332827";"61.88421249";"31.19725227";"Суйстамо";"";"";"";"halt";"026212"
"026227";"1";"0";"611332791";"61.88521576";"31.05463219";"Алатту";"";"";"";"halt";"026227"
"026231";"1";"0";"1620083629";"61.86991882";"31.3336525";"Леппясюрья";"";"";"";"station";""
"026301";"1";"0";"1616818819";"62.10041428";"32.37121964";"Суоярви 2";"Суоярви II";"";"";"station";"026301"
"026320";"1";"0";"1616818825";"62.18677521";"32.54138565";"Суоёки";"Суойоки";"";"";"station";"026320"
"026335";"1";"0";"611333262";"62.20520401";"32.60724258";"22 км";"";"";"";"halt";"026335"
"026405";"1";"0";"1616818792";"62.27614975";"32.67831039";"Найстенъярви";"";"";"";"station";"026405"
"026413";"1";"0";"1616818939";"62.3034668";"32.66839218";"35 км";"";"";"";"halt";"026413"
"026509";"1";"0";"4225332754";"62.43447495";"32.64677048";"Лахколамен";"";"";"";"station";"026509"
"026617";"1";"0";"611333387";"62.56140137";"32.70253372";"Тумасозеро";"";"";"";"station";"026617"
"026706";"1";"0";"2173417115";"62.69779205";"32.69054413";"Поросозеро";"";"";"";"station";"026706"
"026809";"1";"0";"1195215710";"62.73794937";"32.69776535";"Аконъярви";"";"";"";"station";"026809"
"026922";"1";"0";"611333069";"63.11216736";"32.31671906";"Руголамби";"";"";"";"station";"026922"
"026937";"1";"0";"813333982";"62.93160629";"32.50928116";"Гимольская";"";"";"";"station";""
"027003";"1";"0";"2173512427";"63.172966";"32.31951141";"Суккозеро";"";"";"";"station";"027003"
"027018";"1";"0";"813327927";"63.22771454";"32.29603958";"Брусничная";"";"";"";"station";"027018"
"027022";"1";"0";"1620487658";"63.23371506";"32.27950668";"148 км";"";"";"";"halt";"027022"
"027037";"1";"0";"611333568";"63.33171844";"32.20315552";"Кангас";"";"";"";"station";"027037"
"027111";"1";"0";"611373011";"63.25003433";"31.87114525";"170 км";"";"";"";"halt";"027111"
"027126";"1";"0";"611373050";"63.24518204";"32.06143951";"Суун";"";"";"";"station";"027126"
"027215";"1";"0";"611373215";"63.35768127";"31.47141266";"197 км";"";"";"";"halt";"027215"
"027223";"1";"0";"1620487498";"63.27837753";"31.7373085";"Мотко";"";"";"";"halt";"027223"
"027304";"1";"0";"1620487495";"63.3939743";"31.26740456";"Лендеры";"";"";"";"station";""
"027408";"1";"0";"1616706226";"63.53364182";"32.07826996";"Пенинга";"";"";"";"station";"027408"
"027412";"1";"0";"611333738";"63.63772202";"32.02998734";"Волома";"";"";"";"halt";"027412"
"027516";"1";"0";"611333762";"63.86580276";"32.00455856";"Сельга";"";"";"";"station";"027516"
"027709";"1";"0";"676573249";"64.25811005";"32.04017258";"Ледмозеро";"Ледмозеро I";"";"";"station";"027709"
"027713";"1";"0";"1620466785";"64.44332886";"31.26131058";"Кимасозеро";"";"";"";"halt";"027713"
"027732";"1";"0";"611356473";"64.27519226";"32.01784897";"Ледмозеро 2";"Ледмозеро II";"";"";"station";"027732"
"027747";"1";"0";"1621454802";"64.0982666";"33.05553818";"Пертозеро";"";"";"";"station";"027747"
"027751";"1";"0";"3907647914";"64.31201172";"31.62142181";"Разъезд 24 км";"";"";"";"halt";""
"027802";"1";"0";"1161746598";"64.63208771";"30.789114";"Костомукша-Товарная";"";"";"";"station";"027802"
"027906";"1";"0";"8234294221";"64.60838318";"30.60281944";"Костомукша-Пассажирская";"";"";"";"station";"027906"
"028006";"1";"0";"1616683162";"64.54953003";"30.06417656";"Кивиярви";"";"";"";"station";"028006"
"028307";"1";"0";"611334076";"64.61392975";"32.22669601";"Боровая";"";"";"";"station";"028307"
"028400";"1";"0";"1610325761";"64.77043152";"32.23126221";"Юшкозеро";"";"";"";"station";"028400"
"028504";"1";"0";"354041965";"60.84064484";"28.37717056";"Бусловская";"";"";"";"station";"028504"
"030006";"1";"0";"4288702580";"59.87548828";"30.41586113";"Санкт-Петербург-Сортировочный-Московский";"";"";"";"station";"030006"
"030107";"1";"0";"456707237";"59.85531616";"31.01329231";"Невдубстрой";"";"";"";"station";"030107"
"030114";"1";"0";"762825106";"59.83643341";"31.03948402";"11 км";"";"";"";"halt";"030114"
"030114";"2";"0";"577332888";"59.8405838";"32.34297562";"11 км";"";"";"";"halt";""
"030129";"1";"0";"849241569";"59.82214355";"31.03655624";"Грибное";"";"";"";"halt";"030129"
"030133";"1";"0";"518270705";"59.7925148";"31.02856636";"6 км";"";"";"";"halt";"030133"
"030148";"1";"0";"836006985";"59.77933884";"31.02983093";"4 км";"";"";"";"halt";"030148"
"030203";"1";"0";"2434723648";"59.7554245";"31.0616188";"Мга";"";"";"";"station";"030203"
"030218";"1";"0";"423135578";"59.7632637";"30.98785973";"45 км";"";"";"";"halt";"030218"
"030222";"1";"0";"423135577";"59.76764297";"30.94581985";"Горы";"";"";"";"station";"030222"
"030237";"1";"0";"1252496483";"59.71977997";"30.95279884";"Войтоловка";"";"";"";"station";"030237"
"030400";"1";"0";"423135580";"59.79171371";"30.88053322";"Павлово на Неве";"";"";"";"station";"030400"
"030415";"1";"0";"423135581";"59.80547333";"30.85933495";"Геройская";"";"";"";"halt";"030415"
"030426";"1";"0";"423135583";"59.82870102";"30.82424545";"Островки";"Островная";"";"";"halt";"030426"
"030434";"1";"0";"423135584";"59.84315872";"30.77267075";"20 км";"";"";"";"halt";"030434"
"030504";"1";"0";"423135585";"59.85409927";"30.73327065";"Манушкино";"";"";"";"station";"030504"
"030523";"1";"0";"423135587";"59.86397171";"30.67392349";"Колтуши";"";"";"";"halt";"030523"
"030538";"1";"0";"423135589";"59.89724731";"30.61130333";"Мяглово";"";"";"";"halt";"030538"
"030542";"1";"0";"423135586";"59.86100388";"30.70858002";"16 км";"";"";"";"halt";"030542"
"030557";"1";"0";"423135588";"59.87969971";"30.63775635";"11 км";"";"";"";"halt";"030557"
"030557";"2";"0";"577332888";"59.8405838";"32.34297562";"11 км";"";"";"";"halt";""
"030561";"1";"0";"1925414105";"59.91293335";"30.58768272";"7 км";"";"";"";"halt";"030561"
"030576";"1";"0";"60908064";"59.9246788";"30.56999397";"5 км";"";"";"";"halt";"030576"
"030576";"2";"0";"5532820444";"60.99104691";"29.09818649";"5 км";"";"";"";"station";""
"030608";"1";"0";"423135576";"59.76900482";"30.83286858";"Пелла";"";"";"";"station";"030608"
"030612";"1";"0";"423135575";"59.76008606";"30.77974129";"Ивановская";"";"";"";"halt";"030612"
"030627";"1";"0";"423135574";"59.76836395";"30.72026443";"Усть-Тосненская";"";"";"";"halt";"030627"
"030701";"1";"0";"423135573";"59.77281952";"30.67828941";"Сапёрная";"";"";"";"halt";"030701"
"030716";"1";"0";"4190942300";"60.69848633";"29.91979218";"Понтонная";"";"";"";"halt";""
"030716";"1";"0";"2120375704";"59.78565598";"30.62500572";"Понтонная";"";"";"";"halt";"030716"
"030811";"1";"0";"423135571";"59.8080368";"30.56246185";"Ижоры";"";"19 км";"";"halt";"030811"
"030909";"1";"0";"2111802825";"59.83127213";"30.50115585";"Рыбацкое";"";"";"";"station";"030909"
"031009";"1";"0";"2011157312";"59.84943771";"30.45319176";"Обухово";"";"";"";"station";"031009"
"031013";"1";"0";"2011157469";"59.87915802";"30.40756226";"Фарфоровская";"";"";"";"halt";"031013"
"031032";"1";"0";"5673073320";"59.90717316";"30.37186813";"Навалочная";"";"";"";"halt";"031032"
"031206";"1";"0";"2011157458";"59.47885895";"31.00763893";"Ушаки";"";"";"";"station";"031206"
"031225";"1";"0";"1224639476";"59.5600853";"30.90431976";"Зареченская";"";"";"";"station";"031225"
"031302";"1";"0";"266687908";"59.54452896";"30.88191414";"Тосно";"";"";"";"station";"031302"
"031314";"1";"0";"5678147744";"59.56173706";"30.84911537";"Тосно II";"";"";"";"halt";"031314"
"031329";"1";"0";"1225509269";"59.61129379";"30.78687668";"пост 43 км";"";"";"путевой пост 43 км";"halt";"031329"
"031333";"1";"0";"5673073319";"59.63528442";"30.75711441";"Саблино";"";"";"";"station";"031333"
"031348";"1";"0";"2011157334";"59.67915726";"30.7021904";"Поповка";"";"";"";"halt";"031348"
"031371";"1";"0";"3749315800";"59.33520889";"32.68125916";"36 км";"";"";"";"halt";"031371"
"031507";"1";"0";"1002471313";"59.59126663";"31.16775131";"Шапки";"";"";"";"halt";"031507"
"031511";"1";"0";"1043721720";"59.56718063";"31.06399155";"13 км";"";"";"";"halt";"031511"
"031526";"1";"0";"561080376";"59.56354523";"31.01852798";"Нурма";"";"";"";"halt";"031526"
"031600";"1";"0";"2011157190";"59.74979019";"30.61450958";"Колпино";"";"";"";"station";"031600"
"031615";"1";"0";"2011157186";"59.76222992";"30.57970428";"Ижорский завод";"";"";"";"halt";"031615"
"031621";"1";"0";"2012751829";"59.78859711";"30.5386467";"Металлострой";"";"";"";"halt";"031621"
"031634";"1";"0";"2012751855";"59.80729675";"30.51273537";"Славянка";"";"";"";"station";"031634"
"031808";"1";"0";"2417778283";"59.89348602";"30.39275551";"Санкт-Петербург-Товарный-Московский";"";"";"";"station";"031808"
"031812";"1";"0";"21596808";"59.92693329";"30.3631134";"Санкт-Петербург-Главный";"";"";"Санкт-Петербург-Главный";"station";"031812"
"032105";"1";"0";"1224650644";"59.66036987";"30.84266281";"Пустынька";"";"";"";"station";"032105"
"032112";"2";"0";"6468479746";"59.28079987";"32.4928093";"22 км";"";"";"";"halt";""
"032139";"1";"0";"1871762722";"59.58024979";"30.6554985";"Стекольный";"";"";"";"station";"032139"
"032302";"1";"0";"6125937108";"59.57577896";"30.5457859";"Новолисино";"";"";"";"station";""
"032317";"1";"0";"428893956";"59.59196854";"30.52165222";"40 км";"";"";"";"halt";"032317"
"032321";"1";"0";"428893955";"59.62440872";"30.48676872";"36 км";"";"";"";"halt";"032321"
"032336";"1";"0";"417668112";"59.5737915";"30.367033";"Владимирская";"";"";"";"station";"032336"
"032355";"1";"0";"344093926";"59.58842468";"30.38982391";"Кобралово";"";"";"";"station";"032355"
"032365";"1";"0";"1895328854";"59.63740158";"30.46978951";"34 км";"";"";"";"halt";"032365"
"032406";"1";"0";"6548406948";"59.64088821";"30.42685127";"Антропшино";"";"";"";"station";"032406"
"032508";"1";"0";"4138001513";"59.6935463";"30.43277168";"Павловск";"";"";"";"station";"032508"
"032707";"1";"0";"27024681";"59.72303772";"30.42967987";"Царское Село";"";"Детское Село";"";"station";"032707"
"032711";"1";"0";"27024723";"59.74073029";"30.420784";"Детскосельская";"";"";"";"halt";"032711"
"032995";"1";"0";"1382855996";"59.78765488";"30.39747047";"Паровозный музей";"";"16 км";"";"halt";"032995"
"033004";"1";"0";"1377619868";"59.80579758";"30.3884697";"Шушары";"";"";"";"station";"033004"
"033023";"1";"0";"2010278010";"59.82975769";"30.37626457";"Купчино";"";"";"";"halt";"033023"
"033038";"1";"0";"4894377233";"59.85174179";"30.36557198";"проспект Славы";"";"";"";"halt";"033038"
"033042";"1";"0";"4178587643";"59.89077377";"30.34568787";"Воздухоплавательный парк";"";"";"";"halt";"033042"
"033057";"1";"0";"1851450279";"59.90578842";"30.33838844";"Боровая";"";"";"";"halt";"033057"
"033061";"1";"0";"21683296";"59.91881561";"30.33071518";"Санкт-Петербург - Витебский";"";"";"";"station";"033061"
"033108";"1";"0";"1002512043";"59.82576752";"30.41955376";"Купчинская";"";"";"";"station";"033108"
"033409";"1";"0";"7734414997";"59.89546585";"30.36120415";"Волковская";"";"";"";"station";""
"033413";"1";"0";"22325156";"59.90903854";"30.38748932";"Глухоозёрская";"";"";"";"station";"033413"
"033502";"1";"0";"5880742208";"59.88674164";"30.34693527";"Санкт-Петербург-Товарный-Витебский";"";"";"";"station";"033502"
"033822";"1";"0";"1871738271";"59.5773468";"30.2852478";"Саборы";"";"";"";"halt";"033822"
"034007";"1";"0";"417645572";"59.54415894";"30.10823631";"Гатчина-Товарная-Балтийская";"Гатчина-Балтийская-Товарная";"";"";"station";"034007"
"034026";"1";"0";"2014636340";"59.55264282";"30.13322258";"Гатчина-Варшавская";"";"";"";"station";"034026"
"034030";"1";"0";"2786952783";"59.56524658";"30.13978195";"Татьянино";"";"";"";"halt";"034030"
"034045";"1";"0";"2014636348";"59.59934616";"30.16970062";"Новое Мозино";"Мозино";"";"";"halt";"034045"
"034051";"1";"0";"2014636354";"59.6190834";"30.19300079";"Старое Мозино";"";"";"";"halt";"034051"
"034100";"1";"0";"2014636336";"59.55916595";"30.10370827";"Гатчина-Балтийская Пассажирская";"";"";"";"station";"034100"
"034115";"1";"0";"1716102112";"59.57435989";"30.07619095";"Мариенбург";"";"";"";"halt";"034115"
"034128";"1";"0";"2011157342";"59.60676193";"30.08187103";"Пудость";"";"";"";"station";"034128"
"034204";"1";"0";"958287304";"59.66366959";"30.10269356";"Тайцы";"";"";"";"station";"034204"
"034219";"1";"0";"958287302";"59.70233536";"30.11831665";"Дудергоф";"";"";"";"halt";"034219"
"034308";"1";"0";"958287299";"59.73111725";"30.10408783";"Красное Село";"";"";"";"station";"034308"
"034312";"1";"0";"958287296";"59.75169373";"30.11663437";"Скачки";"";"";"";"halt";"034312"
"034401";"1";"0";"3774659757";"59.77910995";"30.12553787";"Горелово";"";"";"";"station";"034401"
"034505";"1";"0";"2011157246";"59.82327271";"30.18090439";"Лигово";"";"";"";"station";"034505"
"034513";"1";"0";"2438877178";"59.82454681";"30.22051239";"Ульянка";"";"";"";"halt";"034513"
"034524";"1";"0";"3947213161";"59.8371048";"30.27136803";"Дачное";"";"";"";"halt";"034524"
"034702";"1";"0";"7397289553";"59.64530945";"30.22065926";"Верево";"";"";"";"station";"034702"
"034717";"1";"0";"449326425";"59.69550323";"30.28588486";"Кандакопшино";"";"";"";"halt";"034717"
"034721";"1";"0";"2023566255";"59.67681885";"30.25805283";"Лесное";"";"29 км";"";"halt";"034721"
"034806";"1";"0";"2001886556";"59.7309494";"30.33846283";"Александровская";"";"";"";"station";"034806"
"034810";"1";"0";"6003574578";"59.80804825";"30.3327446";"Шоссейная";"";"";"";"station";"034810"
"034825";"1";"0";"4112240556";"59.81433487";"30.32106972";"Аэропорт";"";"";"";"halt";"034825"
"034909";"1";"0";"1002512045";"59.81672287";"30.35676765";"Среднерогатская";"";"";"";"station";"034909"
"035014";"1";"0";"7397289554";"59.83277893";"30.29022598";"Предпортовая";"";"";"";"station";"035014"
"035207";"1";"1";"104670338";"59.88711929";"30.33425522";"Цветочная";"";"";"";"station";""
"035315";"1";"0";"246118253";"59.89015961";"30.29548645";"Электродепо";"";"";"";"halt";"035315"
"035323";"1";"0";"8519064427";"59.87602997";"30.29279137";"Броневая";"";"";"";"station";"035323"
"035334";"1";"0";"2012751823";"59.8531723";"30.28862381";"Ленинский проспект";"";"проспект Героев";"";"halt";"035334"
"035508";"1";"0";"1002512063";"59.86455154";"30.25034142";"Автово";"";"";"";"station";"035508"
"035705";"1";"0";"1002549286";"59.87170792";"30.28147125";"Нарвская";"";"";"";"station";"035705"
"035719";"1";"0";"1002742122";"59.88273621";"30.30496216";"Корпусный пост";"";"";"";"station";"035719"
"035809";"1";"0";"395306323";"59.90930176";"30.2374897";"Новый порт";"";"";"";"station";"035809"
"036002";"1";"0";"2434852978";"59.9049263";"30.29868507";"Санкт-Петербург - Балтийский";"";"";"";"station";"036002"
"036106";"1";"0";"274960681";"60.01890564";"30.6794281";"Мельничный Ручей";"";"";"";"station";"036106"
"036110";"1";"0";"1835477187";"60.03598785";"30.71981049";"Романовка";"";"";"";"halt";"036110"
"036125";"1";"0";"69051108";"60.05503845";"30.74469185";"Корнево";"";"";"";"halt";"036125"
"036133";"1";"0";"243073750";"60.09575653";"30.77985191";"Проба";"";"";"";"halt";"036133"
"036144";"1";"0";"96788984";"60.01753998";"30.74772453";"Щеглово";"";"";"";"halt";"036144"
"036214";"1";"0";"603061169";"60.08431625";"30.88424873";"Ириновка";"";"";"";"halt";"036214"
"036229";"1";"0";"309699840";"60.09129715";"30.82737923";"Рахья";"";"";"";"halt";"036229"
"036303";"1";"0";"243073737";"60.09679794";"30.96513176";"Борисова Грива";"";"";"";"station";"036303"
"036318";"1";"0";"243073734";"60.09255219";"31.007658";"Ваганово";"";"";"";"halt";"036318"
"036322";"1";"0";"957900559";"60.1095047";"31.06570625";"44 км";"";"";"";"halt";"036322"
"036337";"1";"0";"3186076535";"60.12691879";"31.06487656";"Ладожское озеро";"";"";"";"station";"036337"
"036407";"1";"0";"506809519";"60.00788116";"30.79610062";"Кирпичный завод";"";"";"";"station";"036407"
"036411";"1";"0";"958289207";"59.97897339";"30.86759377";"Радченко";"";"";"";"halt";"036411"
"036426";"1";"0";"506809550";"59.9760704";"30.9327755";"Дунай";"";"";"";"halt";"036426"
"036430";"1";"0";"506809891";"59.97215271";"30.98114204";"19 км";"";"";"";"halt";"036430"
"036445";"1";"0";"243072776";"59.96913528";"31.02361488";"21 км";"";"";"";"halt";"036445"
"036500";"1";"0";"639204013";"59.96095657";"31.02809525";"Петрокрепость";"";"";"";"station";"036500"
"036515";"1";"0";"506809889";"59.93722916";"30.96958351";"Сады";"";"";"";"halt";"036515"
"036529";"1";"0";"506809862";"59.92713547";"30.96470833";"Чёрная речка";"";"";"";"halt";"036529"
"036534";"1";"0";"3501727439";"59.87711334";"30.96131897";"Теплобетонная";"";"";"";"halt";"036534"
"036549";"1";"0";"957904867";"59.8542366";"30.93377876";"37 км";"";"";"";"halt";"036549"
"036604";"1";"0";"8489042247";"59.84380341";"30.92877388";"Невская Дубровка";"";"";"";"station";"036604"
"036712";"1";"0";"69045781";"60.01444626";"30.64876938";"Всеволожская";"";"";"";"halt";"036712"
"036727";"1";"0";"69045767";"60.00733948";"30.60655594";"Бернгардовка";"";"";"";"halt";"036727"
"036731";"1";"0";"1835181843";"59.98661804";"30.56258583";"Ковалёво";"";"";"";"halt";"036731"
"036746";"1";"0";"272368203";"59.98028946";"30.54914284";"Ковалёво пост";"";"";"";"halt";"036746"
"036801";"1";"0";"3940791607";"59.88920975";"30.495327";"Нева";"";"";"";"station";"036801"
"036905";"1";"0";"1003589182";"59.93943405";"30.5063858";"Заневский Пост";"";"";"";"station";"036905"
"037005";"1";"0";"1913149506";"59.9808197";"30.51580238";"Ржевка";"";"";"";"station";"037005"
"037024";"1";"0";"308149";"59.98820496";"30.42501068";"Пискарёвка";"";"";"";"station";"037024"
"037043";"1";"0";"5673073421";"59.89296341";"30.3922348";"пост 5 км";"";"";"";"halt";"037043"
"037043";"2";"0";"5532820444";"60.99104691";"29.09818649";"5 км";"";"";"";"station";""
"037109";"1";"0";"265301052";"59.93041992";"30.4400959";"Санкт-Петербург-Ладожский";"Дача Долгорукова";"";"";"station";"037109"
"037306";"1";"1";"337186687";"59.96720123";"30.44504738";"Полюстрово";"";"";"";"station";""
"037405";"1";"0";"308112";"59.99046326";"30.35476685";"Кушелевка";"";"";"";"station";"037405"
"037503";"1";"0";"898998717";"60.54753113";"30.21636009";"Сосново";"";"";"";"station";"037503"
"037518";"1";"0";"530790887";"60.50662613";"30.23947906";"69 км";"";"";"";"halt";"037518"
"037522";"1";"0";"705219230";"60.48586655";"30.25207138";"67 км";"";"";"";"halt";"037522"
"037541";"1";"0";"27478959";"60.4117012";"30.33319283";"Лемболово";"";"";"";"halt";"037541"
"037556";"1";"0";"27478967";"60.38817978";"30.34740829";"54 км";"";"";"";"halt";"037556"
"037560";"1";"0";"357076698";"60.37110901";"30.3712101";"Васкелово";"";"";"";"station";"037560"
"037575";"1";"0";"357076697";"60.3380661";"30.41459274";"47 км";"";"";"";"halt";"037575"
"037607";"1";"0";"357076696";"60.31753159";"30.43087387";"Грузино";"";"";"";"station";"037607"
"037611";"1";"0";"357076695";"60.27239609";"30.4451046";"39 км";"";"";"";"halt";"037611"
"037700";"1";"0";"357076694";"60.24716949";"30.46421242";"Пери";"";"";"";"station";"037700"
"037715";"1";"0";"27479021";"60.20898056";"30.49400902";"Осельки";"";"";"";"halt";"037715"
"037724";"1";"0";"357076693";"60.17243958";"30.52531624";"Кавголово";"";"";"";"halt";"037724"
"037804";"1";"0";"27478928";"60.46443558";"30.26114082";"Орехово";"";"";"";"station";"037804"
"037908";"1";"0";"1583075831";"60.1491127";"30.50899506";"Токсово";"";"";"";"station";"037908"
"037912";"1";"0";"244211828";"60.11190414";"30.48374557";"Кузьмолово";"";"";"";"halt";"037912"
"038008";"1";"0";"8211622593";"60.09449768";"30.47208786";"Капитолово";"";"";"";"station";"038008"
"038012";"1";"0";"285572702";"60.07605362";"30.45983505";"Лаврики";"";"";"";"halt";"038012"
"038027";"1";"0";"25717718";"60.05052567";"30.44280815";"Девяткино";"";"";"";"station";"038027"
"038031";"1";"0";"1851427727";"60.03314209";"30.43759537";"Мурино";"";"";"";"halt";"038031"
"038046";"1";"0";"314478";"60.01624298";"30.43652344";"Депо Ручьи";"";"";"";"halt";""
"038101";"1";"0";"2012751852";"60.00405502";"30.44077682";"Ручьи";"";"";"";"halt";"038101"
"038205";"1";"0";"7535181";"59.95818329";"30.3581562";"Санкт-Петербург - Финляндский";"Финляндский вокзал";"";"";"station";"038205"
"038215";"1";"0";"5741053260";"59.99496078";"30.32758141";"Ланская";"";"";"";"station";"038215"
"038309";"1";"0";"2238292659";"60.05810165";"30.35786438";"Парнас";"";"Бугры";"";"station";"038309"
"038417";"1";"0";"21751960";"60.0391655";"30.30168152";"Озерки";"";"";"";"halt";"038417"
"038506";"1";"0";"4965103290";"60.04656219";"30.29763794";"Шувалово";"";"";"";"station";"038506"
"038510";"1";"0";"5748040614";"60.08118439";"30.25859642";"Парголово";"";"";"";"station";"038510"
"038525";"1";"0";"25716898";"60.01753998";"30.31339073";"Удельная";"";"";"";"halt";"038525"
"038807";"1";"0";"25532584";"60.10431671";"30.21862221";"Левашово";"";"";"";"station";"038807"
"038811";"1";"0";"25507781";"60.11754608";"30.15149117";"Песочная";"";"";"";"halt";"038811"
"038826";"1";"0";"8487287442";"60.12216568";"30.12803841";"Дибуны";"";"";"";"halt";"038826"
"038826";"1";"1";"217300468";"60.12236023";"30.12792015";"Дибуны";"";"";"";"station";""
"038900";"1";"0";"2012751838";"59.99176788";"30.29681015";"Новая Деревня";"";"";"";"station";"038900"
"038915";"1";"0";"5741082687";"59.99456024";"30.15252113";"Лахта";"";"";"";"halt";"038915"
"038920";"1";"0";"8487054453";"59.99575806";"30.13043022";"Ольгино";"";"";"";"halt";"038920"
"038949";"2";"0";"577332888";"59.8405838";"32.34297562";"11 км";"";"";"";"halt";""
"038953";"1";"0";"2008344182";"59.98802567";"30.25359535";"Старая Деревня";"";"";"";"halt";"038953"
"038968";"1";"0";"8486957977";"59.9918251";"30.22098541";"Яхтенная";"";"";"";"halt";"038968"
"039000";"1";"0";"5764570565";"60.01442719";"30.01244164";"Лисий Нос";"";"Раздельная";"";"halt";"039000"
"039015";"1";"0";"8487132407";"60.0391655";"29.97729492";"Горская";"";"";"";"halt";"039015"
"039025";"1";"0";"8487145301";"60.05000305";"29.97678185";"Александровская";"";"";"";"halt";"039025"
"039034";"1";"0";"8487157629";"60.06215286";"29.9734211";"Тарховка";"";"";"";"halt";"039034"
"039049";"1";"0";"8487172892";"60.0788765";"29.96819305";"Разлив";"";"";"";"halt";"039049"
"039104";"1";"0";"393980264";"60.09309006";"29.95852661";"Сестрорецк";"";"";"";"station";"039104"
"039119";"1";"0";"64830771";"60.1111412";"29.95484543";"Курорт";"";"";"";"halt";"039119"
"039208";"1";"0";"2012627810";"60.14433289";"30.0136795";"Белоостров";"";"";"";"station";"039208"
"039212";"1";"0";"5744507215";"60.15847778";"29.94291306";"Солнечное";"";"";"";"halt";"039212"
"039227";"1";"0";"505591307";"60.17296219";"29.86839676";"Репино";"";"Kuokkala";"";"halt";"039227"
"039231";"1";"0";"1862930371";"60.18456268";"29.80904007";"Комарово";"";"";"";"halt";"039231"
"039301";"1";"0";"2011157176";"60.20549011";"29.70046616";"Зеленогорск";"";"";"";"station";"039301"
"039316";"1";"0";"2011157461";"60.2207756";"29.62462425";"Ушково";"";"";"";"halt";"039316"
"039320";"1";"0";"1371730163";"59.82566071";"30.37794876";"Молодёжная";"";"";"";"station";""
"039320";"1";"0";"937255885";"60.20206451";"29.50896263";"Молодёжное";"";"Vammeljoki";"";"halt";"039320"
"039405";"1";"0";"2011157370";"60.24910355";"29.57426071";"Рощино";"";"";"";"station";"039405"
"039410";"1";"0";"2011157477";"60.27374268";"29.53054237";"63 км";"";"платформа Мэри-суо";"";"halt";"039410"
"039410";"2";"0";"6468479759";"59.45677567";"33.0718956";"63 км";"";"";"";"halt";""
"039513";"1";"0";"5764638541";"60.29083633";"29.50027847";"Горьковское";"";"";"";"halt";"039513"
"039528";"1";"0";"505591365";"60.33777618";"29.41664124";"73 км";"";"Шевелёво";"";"halt";"039528"
"039602";"1";"0";"389877032";"60.35778046";"29.3887043";"Каннельярви";"";"";"";"station";"039602"
"039617";"1";"0";"1854937987";"60.40976334";"29.35225105";"Заходское";"";"Lounatjoki";"";"station";"039617"
"039706";"1";"0";"357208840";"60.17226791";"29.43003464";"Приветненское";"";"Ino";"";"station";"039706"
"039710";"1";"0";"886308514";"60.17138672";"29.39845276";"70 км";"";"";"";"halt";"039710"
"039725";"1";"0";"904578941";"60.19675827";"29.2648468";"Местерьярви";"";"";"";"halt";"039725"
"039730";"1";"0";"937255867";"60.22255707";"29.18267059";"Яппиля";"";"";"";"halt";"039730"
"039744";"1";"0";"4144207932";"60.26060104";"29.13629913";"Тарасовское";"";"";"";"halt";"039744"
"039759";"1";"0";"937255898";"60.17917252";"29.35920525";"72 км";"";"";"";"halt";"039759"
"039763";"1";"0";"1387597699";"60.24409866";"29.15340424";"Зеркальный";"";"";"";"halt";"039763"
"039814";"1";"0";"356057573";"60.33765793";"28.98295403";"Куолемаярви";"";"";"";"station";"039814"
"039829";"1";"0";"65000141";"60.35515594";"28.90382004";"106 км";"";"";"";"halt";"039829"
"039829";"2";"0";"7792739422";"59.20526886";"31.52545929";"106 км";"";"";"";"station";""
"040008";"1";"0";"233116573";"59.92121124";"32.30067825";"Волховстрой-1";"";"";"";"station";"040008"
"040012";"1";"0";"244579564";"59.91534424";"32.25235367";"119 км";"";"";"";"halt";"040012"
"040027";"1";"0";"233114464";"59.90984726";"32.17677307";"115 км";"";"";"";"halt";"040027"
"040031";"1";"0";"506822528";"59.90445328";"32.10168457";"Пупышево";"";"";"";"station";"040031"
"040046";"2";"0";"7792739422";"59.20526886";"31.52545929";"106 км";"";"";"";"station";""
"040046";"1";"0";"516355092";"59.89815903";"32.01451874";"106 км";"";"";"";"halt";"040046"
"040101";"1";"0";"3867997198";"58.52663422";"31.25011253";"Новгород-на-Волхове";"Великий Новгород";"";"";"station";"040101"
"040120";"1";"0";"21683581";"58.55213165";"31.23310661";"Новгород-Лужский";"";"";"";"station";"040120"
"040135";"1";"0";"295535314";"58.56889725";"31.18025589";"88 км";"";"";"";"halt";"040135"
"040146";"1";"0";"1841069215";"59.2928009";"31.81032181";"83 км";"";"";"";"halt";""
"040169";"1";"0";"295535326";"58.60223389";"30.93357086";"73 км";"";"";"";"halt";"040169"
"040173";"1";"0";"18485486";"58.61197662";"30.83438492";"Люболяды (станция)";"";"";"";"station";"040173"
"040188";"1";"0";"3755070010";"58.62250137";"30.75202942";"63 км";"";"";"";"halt";"040188"
"040212";"1";"0";"268104951";"58.61542892";"31.21149445";"Вяжище";"";"";"";"station";"040212"
"040239";"1";"0";"268842129";"58.71294403";"31.15443611";"Татино";"";"";"";"station";"040239"
"040243";"1";"0";"3755085177";"58.79788208";"31.12495422";"Горенка";"";"";"";"halt";"040243"
"040262";"1";"0";"3755074894";"58.90511322";"31.0877552";"Кересть";"";"";"";"halt";"040262"
"040277";"1";"0";"3755076695";"58.93709946";"31.07642555";"123 км";"";"";"";"halt";""
"040281";"1";"0";"3755089904";"58.88949203";"31.09285164";"128 км";"";"";"";"halt";""
"040296";"1";"0";"3755074544";"58.8314476";"31.11310577";"137 км";"";"";"";"halt";""
"040525";"1";"0";"295535601";"58.62815857";"30.42829323";"Радом";"";"";"";"station";"040525"
"040531";"1";"0";"21683548";"58.6215477";"30.69160843";"58 км";"";"";"";"halt";"040531"
"040544";"1";"0";"293058034";"58.62226486";"30.62491417";"Мойка";"";"";"";"station";"040544"
"040563";"1";"0";"295534839";"58.63855362";"30.35601425";"38 км";"";"";"";"halt";""
"040614";"1";"0";"1126344829";"58.99078751";"31.53980064";"Трегубово";"";"";"";"halt";"040614"
"040652";"1";"0";"21683621";"58.81779861";"31.46533203";"Мясной Бор";"";"";"";"halt";"040652"
"040671";"1";"0";"1126344843";"58.92833328";"31.50547409";"Спасская Полисть";"";"";"";"station";"040671"
"040703";"1";"0";"1126344830";"58.70118332";"31.36300659";"Подберезье";"";"";"";"station";"040703"
"040737";"1";"0";"268104950";"58.56631088";"31.2453289";"Предузловая-Павловская";"";"";"";"station";""
"040741";"1";"0";"332945959";"58.54805374";"31.2575531";"Новгород-депо";"";"";"";"station";"040741"
"040900";"1";"0";"1029919310";"58.94926453";"31.07217598";"Рогавка";"";"";"";"station";""
"040915";"1";"0";"428893965";"59.02535248";"30.96366882";"Огорелье";"";"";"";"halt";"040915"
"040927";"1";"0";"428893962";"59.08219528";"30.91996765";"104 км";"";"";"";"halt";"040927"
"040934";"1";"0";"428893961";"59.10042191";"30.90594101";"101 км";"";"";"";"halt";"040934"
"041000";"1";"0";"428893960";"59.14543152";"30.87122536";"Радофинниково";"";"";"";"station";""
"041015";"1";"0";"1902726887";"59.24730301";"30.79232788";"Ёглино";"";"";"";"halt";"041015"
"041022";"1";"0";"428893959";"59.3012352";"30.75053596";"77 км";"";"";"";"halt";"041022"
"041034";"1";"0";"1864631823";"59.33189011";"30.72572136";"Кастенская";"";"";"";"station";"041034"
"041049";"1";"0";"27024968";"59.42595673";"30.64808846";"Лустовка";"";"";"";"station";"041049"
"041068";"1";"0";"428893958";"59.49556732";"30.58032227";"53 км";"";"";"";"halt";""
"041072";"1";"0";"1234061411";"59.56235504";"30.54823494";"46 км";"";"";"";"halt";"041072"
"041087";"1";"0";"428893957";"59.52015686";"30.56057739";"51 км";"";"";"";"halt";""
"041091";"1";"0";"2009109099";"59.54159546";"30.55509949";"48 км";"";"";"";"halt";"041091"
"041104";"1";"0";"2004992220";"58.48420715";"33.07516098";"Боровёнка";"";"";"";"station";"041104"
"041119";"1";"0";"446265118";"58.53850555";"32.97027206";"Вялка";"";"";"";"halt";"041119"
"041123";"1";"0";"1734209571";"58.51498413";"33.01425934";"226 км";"";"";"";"halt";""
"041208";"1";"0";"2004992252";"58.58189774";"32.88058472";"Торбино";"";"";"";"station";"041208"
"041212";"1";"0";"2004992276";"58.62059021";"32.79053116";"204 км";"";"";"";"halt";"041212"
"041231";"1";"0";"2004992275";"58.63734055";"32.74223709";"203 км";"";"";"";"halt";"041231"
"041246";"2";"0";"3750349932";"58.07246017";"30.22013474";"213 км";"";"";"";"halt";""
"041316";"1";"0";"241792362";"58.6857338";"32.59191895";"190 км";"";"";"";"halt";"041316"
"041418";"1";"0";"741598831";"58.68982697";"32.57420349";"Мстинский Мост";"";"";"";"station";"041418"
"041424";"1";"0";"1540561893";"58.70145798";"32.52765274";"186 км";"";"";"";"halt";""
"041513";"1";"0";"741598847";"58.77438354";"32.36936188";"Краснёнка";"";"";"";"halt";"041513"
"041528";"1";"0";"741598852";"58.78746033";"32.34267044";"113 км";"";"";"";"halt";"041528"
"041551";"1";"0";"1583119544";"58.7436142";"32.43220139";"179 км";"";"";"";"halt";""
"041602";"1";"0";"683286296";"58.84619522";"32.22135925";"Малая Вишера";"";"";"";"station";"041602"
"041706";"1";"0";"741598835";"58.90876007";"32.0927887";"Большая Вишера";"";"";"";"station";"041706"
"041710";"2";"0";"3755076323";"58.69268417";"30.32126999";"144 км";"";"";"";"halt";""
"041710";"1";"0";"742272379";"58.96053696";"31.98529053";"144 км";"";"";"";"halt";"041710"
"041814";"1";"0";"241792211";"59.01791382";"31.86554909";"Дубцы";"";"";"";"halt";"041814"
"041829";"1";"0";"742272325";"59.04566193";"31.81409073";"130 км";"";"";"";"halt";"041829"
"041833";"1";"0";"241792236";"59.07388687";"31.7699585";"Волхов Мост";"";"";"";"halt";"041833"
"041848";"1";"0";"742272359";"59.08309174";"31.75260544";"Волхово";"";"";"";"halt";"041848"
"041852";"1";"0";"286133540";"58.97211075";"31.96120071";"Гряды";"";"";"";"station";"041852"
"042003";"1";"0";"5679563996";"59.12264633";"31.67928696";"Чудово-Московское";"";"";"";"station";"042003"
"042018";"1";"0";"1126344846";"59.11423492";"31.64522362";"Чудово-Новгородское";"Чудово II";"";"";"station";"042018"
"042022";"1";"0";"1841069204";"59.16456985";"31.66699982";"Чудово-Кировское";"";"";"";"station";"042022"
"042037";"1";"0";"3755100645";"59.18241882";"31.71691322";"96 км";"";"";"";"halt";"042037"
"042041";"2";"0";"5530587506";"58.82879639";"35.04079819";"92 км";"";"";"";"halt";""
"042041";"1";"0";"3755105930";"59.20527267";"31.75700951";"93 км";"";"";"";"halt";"042041"
"042056";"1";"0";"2537817720";"59.24280167";"31.80550003";"Водос";"";"";"";"halt";"042056"
"042060";"1";"0";"1841069216";"59.28004074";"31.8100338";"85 км";"";"";"";"halt";"042060"
"042075";"2";"0";"6468479767";"59.57198715";"33.34816742";"83 км";"";"";"";"halt";""
"042085";"1";"0";"1841069214";"59.35691071";"31.81411362";"Тигода";"";"";"";"station";"042085"
"042107";"1";"0";"1841046790";"59.45331192";"31.90164566";"Ирса";"";"";"";"station";"042107"
"042200";"1";"0";"2004992256";"59.17825699";"31.5758152";"Торфяное";"";"";"";"station";"042200"
"042215";"2";"0";"7792739422";"59.20526886";"31.52545929";"106 км";"";"";"";"station";""
"042291";"1";"0";"266687831";"59.2226944";"31.49278069";"Бабино II";"";"";"";"halt";"042291"
"042319";"1";"0";"266687755";"59.26934814";"31.40513611";"Трубниково";"";"";"";"halt";"042319"
"042319";"1";"0";"2014636363";"59.26972961";"31.40437698";"Трубниково";"";"";"";"station";""
"042319";"1";"0";"2014636362";"59.26919556";"31.40546227";"Трубниково";"";"";"";"station";""
"042323";"2";"0";"6468479888";"59.63687515";"33.47246552";"93 км";"";"";"";"halt";""
"042338";"1";"0";"742272370";"59.31162643";"31.32546425";"Померанье";"";"";"";"halt";"042338"
"042342";"1";"0";"266687830";"59.24061584";"31.459095";"Бабино";"";"";"";"halt";"042342"
"042408";"1";"0";"5673073318";"59.35133743";"31.25045395";"Любань";"";"";"";"station";"042408"
"042412";"1";"0";"266687998";"59.38289642";"31.19057655";"Болотницкая";"";"";"";"halt";"042412"
"042427";"1";"0";"266687977";"59.40401459";"31.15042114";"Соколов ручей";"";"";"";"halt";"042427"
"042501";"1";"0";"2011157385";"59.41677856";"31.12616158";"Рябово";"";"";"";"station";"042501"
"042516";"1";"0";"2011157149";"59.44550705";"31.07135773";"Георгиевская";"";"";"";"halt";"042516"
"042613";"1";"0";"348670782";"58.36994553";"36.73096085";"Топорово";"";"";"";"station";"042613"
"042713";"1";"0";"1386036189";"58.39645004";"36.6271019";"Дынино";"";"";"";"station";""
"042802";"1";"0";"966145286";"58.46224976";"36.4044075";"Сандово";"";"";"";"station";"042802"
"042821";"1";"0";"1278079413";"58.5427475";"36.10344696";"Приданиха";"";"";"";"station";"042821"
"042836";"1";"0";"3755435901";"58.57420349";"35.96321106";"326 км";"";"";"";"halt";""
"042906";"1";"0";"313444054";"58.60128784";"35.80675888";"Пестово";"";"";"";"station";"042906"
"042910";"1";"0";"3755435547";"58.62296677";"35.72409058";"312 км";"";"";"";"halt";"042910"
"042925";"1";"0";"3755431392";"58.65339661";"35.61294174";"Дуневка";"";"";"";"halt";"042925"
"042944";"1";"0";"295275355";"58.63126373";"35.68034363";"309 км";"";"";"";"halt";"042944"
"043010";"1";"0";"3755431010";"58.71095657";"35.43467712";"Абросово";"";"";"";"station";"043010"
"043114";"1";"0";"3755431683";"58.78585434";"35.16547012";"273 км";"";"";"";"halt";"043114"
"043133";"1";"0";"3755434025";"58.75955582";"35.2501564";"Бугры";"";"";"";"station";"043133"
"043203";"1";"0";"1421212570";"58.80455399";"35.03002548";"Кабожа";"";"";"";"station";"043203"
"043218";"1";"0";"286093536";"58.79825211";"34.88718796";"256 км";"";"";"";"halt";"043218"
"043237";"2";"0";"3755429104";"58.85419083";"34.75283432";"246 км";"";"";"";"halt";""
"043237";"1";"0";"1584747506";"58.39321136";"33.24930954";"246 км";"";"";"";"halt";"043237"
"043504";"1";"0";"1478207190";"59.15749741";"35.31044388";"Чагода";"Леспромхоз";"Белый Бык, Чагода";"";"station";"043504"
"043519";"1";"0";"353105731";"59.32849121";"35.1652832";"Тургошь";"";"";"";"station";"043519"
"043608";"1";"0";"2012534823";"59.09297562";"35.2063179";"Огарево";"";"";"";"station";"043608"
"043716";"1";"0";"6555257902";"58.91303253";"35.09055328";"80 км";"";"";"";"halt";"043716"
"043720";"1";"0";"5530587509";"58.9491539";"35.12750626";"Горны";"";"";"";"halt";"043720"
"043735";"2";"0";"5530587506";"58.82879639";"35.04079819";"92 км";"";"";"";"halt";""
"043805";"1";"0";"3755429089";"58.8683548";"34.6649971";"Кушавера";"";"";"";"station";"043805"
"043909";"1";"0";"311807350";"58.89294434";"34.50370026";"Хвойная";"";"";"";"station";"043909"
"044009";"1";"0";"3749310023";"58.91165543";"34.33768463";"Песь";"";"";"";"station";"044009"
"044013";"1";"0";"3749310249";"58.93848038";"34.18310928";"Ракитино";"";"";"";"halt";"044013"
"044102";"1";"0";"3749309649";"58.95376968";"34.08071899";"Соминка";"";"";"";"station";"044102"
"044206";"1";"0";"1690272202";"58.9596405";"33.99299622";"Анциферово-Мологское";"";"";"";"station";"044206"
"044300";"1";"0";"3749309552";"58.98936844";"33.82010269";"Киприя";"";"";"";"station";"044300"
"044352";"1";"0";"2630676527";"58.99207306";"33.75202942";"184 км";"";"";"";"halt";"044352"
"044371";"1";"0";"3749304145";"59.01913452";"33.64278793";"Теребутенец";"";"";"";"station";"044371"
"044418";"1";"0";"3749302072";"59.1507225";"33.2458992";"148 км";"";"";"";"halt";"044418"
"044422";"1";"0";"2371425630";"59.06341171";"33.50764847";"Окулово";"";"";"";"station";"044422"
"044437";"1";"0";"2371425622";"59.05342102";"33.53897476";"169 км";"";"";"";"halt";"044437"
"044507";"1";"0";"2508819597";"59.12195206";"33.34258652";"Неболчи";"";"";"";"station";"044507"
"044831";"1";"0";"611221258";"59.23672867";"32.65093231";"Горятино";"112км";"";"";"halt";"044831"
"044846";"1";"0";"470408459";"59.1941452";"32.89248276";"Тальцы-Мологские";"";"";"";"station";"044846"
"044916";"1";"0";"1264679216";"59.35188293";"32.77463531";"Разъезд №2";"";"";"";"halt";"044916"
"044920";"1";"0";"1871768901";"59.41215897";"32.93888855";"Разъезд №3";"";"";"";"halt";"044920"
"044935";"2";"0";"6468479759";"59.45677567";"33.0718956";"63 км";"";"";"";"halt";""
"044948";"1";"0";"1841017215";"59.48560715";"33.12802505";"Разъезд № 4";"";"";"";"halt";"044948"
"044954";"1";"0";"610894820";"59.50703049";"33.19454575";"Клинцы";"";"";"";"halt";""
"044969";"2";"0";"6468479767";"59.57198715";"33.34816742";"83 км";"";"";"";"halt";""
"044973";"2";"0";"5532820444";"60.99104691";"29.09818649";"5 км";"";"";"";"station";""
"044988";"2";"0";"6468479888";"59.63687515";"33.47246552";"93 км";"";"";"";"halt";""
"044992";"2";"0";"3749318720";"59.43826675";"33.03925323";"59 км";"";"";"";"halt";""
"045001";"1";"0";"423154063";"59.28422165";"32.44265747";"Будогощь";"";"";"";"station";"045001"
"045016";"1";"0";"423154062";"59.32914352";"32.38159943";"92 км";"";"";"";"halt";"045016"
"045035";"2";"0";"6468479746";"59.28079987";"32.4928093";"22 км";"";"";"";"halt";""
"045105";"1";"0";"423154061";"59.35702515";"32.32962036";"Пчёвжа";"";"";"";"station";"045105"
"045110";"1";"0";"423154060";"59.38381958";"32.25623322";"83 км";"";"";"";"halt";"045110"
"045110";"2";"0";"6468479767";"59.57198715";"33.34816742";"83 км";"";"";"";"halt";""
"045124";"1";"0";"423154059";"59.41909409";"32.12644577";"74 км";"";"";"";"halt";"045124"
"045209";"1";"0";"8566940409";"59.45757675";"32.02768326";"Кириши";"";"";"";"station";"045209"
"045213";"1";"0";"423154057";"59.46442795";"31.99054146";"Волхов Пристань";"";"";"";"halt";"045213"
"045228";"1";"0";"8566915202";"59.46715927";"31.96313286";"Пост 63 км";"";"";"";"halt";"045228"
"045228";"2";"0";"6468479759";"59.45677567";"33.0718956";"63 км";"";"";"";"halt";""
"045232";"1";"0";"423154056";"59.46877289";"31.94586945";"Путепровод";"";"";"";"halt";"045232"
"045247";"1";"0";"2014628968";"59.47234344";"31.8960228";"Посадниково";"";"";"";"station";"045247"
"045251";"1";"0";"423154051";"59.50239182";"31.84394264";"55 км";"";"";"";"halt";"045251"
"045251";"1";"0";"4190942273";"60.947258";"29.24141121";"55 км";"";"";"";"halt";""
"045266";"1";"0";"423154046";"59.56354141";"31.65629196";"Жарок";"";"";"";"station";"045266"
"045270";"1";"0";"423154048";"59.52468109";"31.79885292";"52 км";"";"";"";"halt";"045270"
"045302";"1";"0";"1628692294";"59.46050644";"32.06450272";"Кириши-Заводская";"";"";"";"station";"045302"
"045410";"1";"0";"577332889";"59.85155106";"32.33414459";"10 км";"";"";"";"halt";"045410"
"045425";"1";"0";"577332891";"59.88772202";"32.32115936";"6 км";"";"";"";"halt";"045425"
"045439";"1";"0";"5277864246";"59.90670395";"32.32893372";"4 км";"";"";"";"halt";"045439"
"045444";"1";"0";"577332893";"59.91247559";"32.32714462";"Новооктябрьский";"";"";"";"halt";"045444"
"045459";"1";"0";"577332885";"59.74684906";"32.23299026";"Теребочево";"";"";"";"station";"045459"
"045463";"1";"0";"1841028976";"59.70705795";"32.1895256";"30 км";"";"";"";"halt";"045463"
"045478";"1";"0";"3749326727";"59.67906952";"32.13813782";"35 км";"";"";"";"halt";"045478"
"045482";"1";"0";"577332890";"59.87643814";"32.31867981";"Пороги";"";"";"";"station";"045482"
"045497";"1";"0";"577332875";"59.82478333";"32.3578949";"Гостинополье";"";"";"";"station";""
"045505";"1";"0";"797202927";"59.65576172";"32.10598373";"Глажево";"";"";"";"station";"045505"
"045514";"1";"0";"1841028975";"59.61807632";"32.08503723";"Тихорицы";"";"";"";"halt";"045514"
"045586";"1";"0";"577332886";"59.75675201";"32.24282074";"23 км";"";"";"";"halt";""
"045590";"1";"0";"577332887";"59.80970764";"32.34670258";"15 км";"";"";"";"halt";""
"045603";"1";"0";"1548453597";"59.55321503";"32.0387764";"Андреево";"";"";"";"station";"045603"
"045622";"1";"0";"3749326474";"59.58234024";"32.06771851";"46 км";"";"";"";"halt";"045622"
"045711";"1";"0";"2939182879";"59.59915161";"31.53799248";"Погостье";"";"";"";"station";"045711"
"045800";"1";"0";"423154040";"59.63024521";"31.4041996";"Малукса";"";"";"";"station";"045800"
"045815";"1";"0";"5278100747";"59.63954544";"31.37580299";"Старая Малукса";"";"";"";"halt";"045815"
"045824";"1";"0";"5278100748";"59.69049454";"31.24163437";"Турышино";"";"";"";"halt";"045824"
"045849";"1";"0";"423154032";"59.72655106";"31.16015816";"Сологубовка";"";"";"";"station";"045849"
"045853";"1";"0";"1127223064";"59.75796509";"31.1129303";"3 км";"";"";"";"halt";"045853"
"046004";"1";"0";"1712454398";"59.15244293";"37.55145645";"Суда";"";"";"";"station";"046004"
"046019";"1";"0";"3749264608";"59.15340042";"37.64909363";"Нелазское";"";"";"";"station";"046019"
"046038";"1";"0";"3749264288";"59.16014481";"37.45109177";"445 км";"";"";"";"halt";""
"046042";"1";"0";"3749263350";"59.16825104";"37.36878586";"Комариха";"";"";"";"station";"046042"
"046108";"1";"0";"839307495";"59.19633102";"37.15055466";"Кадуй";"";"";"";"station";"046108"
"046127";"1";"0";"3749267760";"59.21162796";"36.94668961";"Холмище";"";"";"";"halt";"046127"
"046216";"1";"0";"330399943";"59.23635101";"36.75875473";"Уйта";"";"";"";"station";"046216"
"046220";"1";"0";"3723275658";"59.25366592";"36.57032776";"Ширьево";"";"";"";"halt";"046220"
"046249";"1";"0";"1341528753";"59.28256226";"36.42962646";"Сиуч";"";"";"";"station";"046249"
"046254";"1";"0";"3749268750";"59.3053627";"36.37188339";"379 км";"";"";"";"halt";""
"046269";"1";"0";"1295883795";"59.33747101";"36.29611588";"Ольховик";"";"";"";"halt";"046269"
"046315";"1";"0";"1712450030";"59.38288498";"36.15181732";"Тимошкино";"";"";"";"station";"046315"
"046409";"1";"0";"983946645";"59.3858757";"35.94868088";"Бабаево";"";"";"";"station";"046409"
"046413";"1";"0";"3749269339";"59.41329193";"35.82375717";"Колодинка";"";"";"";"halt";"046413"
"046502";"1";"0";"307458027";"59.48329926";"35.62864685";"Тешемля";"";"";"";"station";"046502"
"046606";"1";"0";"1712450029";"59.514534";"35.43308258";"Верхневольский";"";"";"";"station";"046606"
"046700";"1";"0";"1094409817";"59.51537323";"35.2257576";"Заборье";"";"";"";"station";"046700"
"046803";"1";"0";"1732786574";"59.50761414";"35.03829956";"Подборовье";"";"";"";"station";"046803"
"046822";"1";"0";"1264874598";"59.50683975";"34.97285843";"292 км";"";"";"";"halt";""
"046837";"1";"0";"1264874633";"59.49303436";"34.84695816";"Фетино";"";"";"";"halt";"046837"
"047007";"1";"0";"307457610";"59.49547577";"34.67530441";"Ефимовская";"";"";"";"station";"047007"
"047100";"1";"0";"1264874600";"59.5021286";"34.4940033";"Коли";"";"";"";"station";"047100"
"047115";"1";"0";"1264874664";"59.50504684";"34.3634758";"Чудцы";"";"";"";"halt";"047115"
"047125";"1";"0";"1264874586";"59.5127449";"34.25204849";"Обринский";"";"";"";"halt";"047125"
"047204";"1";"0";"2796751532";"59.52466965";"34.17422104";"Пикалево II";"";"";"";"station";"047204"
"047308";"1";"0";"2796751531";"59.55689621";"34.08368301";"Пикалево I";"";"";"";"station";"047308"
"047401";"1";"0";"1105319600";"59.60289764";"33.94842529";"Большой Двор";"";"";"";"station";"047401"
"047416";"1";"0";"1264749330";"59.58705902";"33.77660751";"Дыми";"";"";"";"station";"047416"
"047420";"1";"0";"1264749336";"59.61354446";"33.6325531";"Астрачи";"";"";"";"station";"047420"
"047505";"1";"0";"8591285218";"59.63632584";"33.5047493";"Тихвин";"";"";"";"station";"047505"
"047510";"1";"0";"1186108795";"59.64076233";"33.3774147";"Костринский";"";"";"";"halt";"047510"
"047524";"1";"0";"1255673272";"59.64318085";"33.30357742";"188 км";"";"";"";"halt";""
"047539";"1";"0";"1255673210";"59.63862228";"33.44223785";"196 км";"";"";"";"halt";""
"047613";"1";"0";"1186108803";"59.64600372";"33.215065";"Цвылёво";"";"";"";"station";"047613"
"047628";"1";"0";"1255673256";"59.66119766";"33.07775879";"Черенцово";"";"";"";"station";"047628"
"047632";"1";"0";"1255673171";"59.68608475";"33.00872421";"170 км";"";"";"";"halt";"047632"
"047647";"1";"0";"1255673182";"59.71575546";"32.946064";"Валя";"";"";"";"station";"047647"
"047651";"2";"0";"6468479897";"59.7645607";"32.8563118";"158 км";"";"";"";"halt";""
"047666";"1";"0";"1255673252";"59.65224075";"33.14441681";"179 км";"";"";"";"halt";""
"047717";"1";"0";"1255673290";"59.82037354";"32.68383408";"Скит";"146 км";"";"";"halt";"047717"
"047721";"1";"0";"1255673206";"59.78937912";"32.78522873";"Зеленец";"";"";"";"halt";"047721"
"047810";"1";"0";"1255673307";"59.85802841";"32.55296707";"138 км";"Сорокино";"";"";"halt";"047810"
"047825";"1";"0";"1261014190";"59.87673569";"32.49556351";"Куколь";"";"";"";"station";"047825"
"047830";"1";"0";"1260734999";"59.8921051";"32.4485321";"131 км";"";"";"";"halt";"047830"
"047844";"1";"0";"1255673200";"59.84572983";"32.59077454";"Мыслино";"";"";"";"station";"047844"
"047859";"1";"0";"1260735006";"59.90155792";"32.41957092";"129 км";"";"";"";"halt";""
"047878";"1";"0";"1255673175";"59.83508682";"32.63047409";"143 км";"";"";"";"halt";"047878"
"048001";"1";"0";"2011157106";"59.91756821";"32.35452652";"Волховстрой-2";"";"";"";"station";"048001"
"048118";"1";"0";"576702024";"59.88508987";"31.83323669";"95 км";"";"";"";"halt";"048118"
"048122";"1";"0";"233114458";"59.89178848";"31.92610741";"Новый Быт";"";"";"";"station";"048122"
"048207";"1";"0";"291708380";"59.88033676";"31.76746178";"Войбокало";"";"";"";"station";"048207"
"048211";"1";"0";"576702020";"59.86181641";"31.65917015";"Плитняки";"";"";"";"halt";"048211"
"048404";"1";"0";"576702017";"59.84623718";"31.5782032";"Жихарево";"";"";"";"station";"048404"
"048419";"1";"0";"576702015";"59.83280182";"31.5215416";"77 км";"";"";"";"halt";"048419"
"048423";"1";"0";"576702010";"59.82571793";"31.49188042";"75 км";"";"";"";"halt";"048423"
"048438";"1";"0";"491500598";"59.81690979";"31.45550346";"Поляны";"";"";"";"halt";"048438"
"048442";"1";"0";"491500596";"59.79981613";"31.37996483";"Назия";"";"";"";"station";"048442"
"048457";"2";"0";"6468479759";"59.45677567";"33.0718956";"63 км";"";"";"";"halt";""
"048457";"1";"0";"6410966848";"59.78649521";"31.29507828";"63 км";"";"";"";"halt";"048457"
"048461";"1";"0";"1127223202";"59.78304672";"31.27322388";"Русановская";"";"";"";"halt";"048461"
"048476";"1";"0";"491500594";"59.77348709";"31.2124958";"Апраксин";"";"";"";"halt";"048476"
"048480";"1";"0";"491500590";"59.7647171";"31.15650749";"Михайловская";"";"";"";"halt";"048480"
"048508";"1";"0";"778920189";"59.93564224";"32.38080597";"Мурманские Ворота";"";"";"";"station";"048508"
"048512";"1";"0";"244581814";"59.97577667";"32.4855957";"135 км";"";"";"";"halt";"048512"
"048527";"1";"0";"929091798";"59.9943161";"32.52721405";"Георгиевский";"135 км";"";"";"halt";"048527"
"048546";"1";"0";"929091791";"60.01305389";"32.56164169";"Хамонтово";"141 км";"";"";"halt";"048546"
"048550";"1";"0";"4041252735";"60.02930069";"32.5860405";"143 км";"";"";"";"halt";"048550"
"048601";"1";"0";"929091694";"60.04450607";"32.60063934";"Колчаново";"";"";"";"station";"048601"
"048705";"1";"0";"929091691";"60.11653519";"32.65262604";"Лунгачи";"";"";"";"station";"048705"
"048724";"1";"0";"929091685";"60.14981842";"32.69257355";"Телжево";"159 км";"";"";"halt";"048724"
"048739";"1";"0";"929091672";"60.19371414";"32.76749802";"165 км";"";"";"";"halt";""
"048813";"1";"0";"929091559";"60.29695511";"32.86953354";"Сидорово";"";"";"";"halt";"048813"
"048828";"1";"0";"244583610";"60.2400856";"32.8036232";"Юги";"";"";"";"station";"048828"
"048832";"1";"0";"27448211";"60.32408524";"32.95088196";"184 км";"Иевково";"";"";"halt";"048832"
"048847";"1";"0";"929091453";"60.35654449";"32.96117783";"187 км";"";"";"";"halt";""
"048851";"1";"0";"27448192";"60.37708664";"33.01166153";"191 км";"";"";"";"halt";""
"048902";"1";"0";"27448166";"60.39622879";"33.04685593";"Паша";"";"";"";"station";"048902"
"049002";"1";"0";"27448179";"60.4554863";"33.1415596";"Оять-Волховстроевский";"";"";"";"station";"049002"
"049017";"1";"0";"27450386";"60.55412674";"33.24763489";"Шоткуса";"";"";"";"halt";"049017"
"049021";"1";"0";"285173";"60.62286758";"33.31514359";"Заостровье";"";"";"";"station";"049021"
"049036";"1";"0";"988123679";"60.65711975";"33.37221527";"229 км";"";"";"";"halt";""
"049040";"1";"0";"929091400";"60.68955231";"33.43600845";"Шамокша";"";"";"";"halt";"049040"
"049106";"1";"0";"2011157276";"60.72788239";"33.55498123";"Лодейное Поле";"";"";"";"station";"049106"
"049207";"1";"0";"285075";"60.74975586";"33.71364975";"Янега";"";"";"";"station";"049207"
"049229";"1";"0";"26994843";"60.83757401";"33.9882164";"Яндеба";"";"";"";"station";"049229"
"049252";"1";"0";"3420025745";"60.8662796";"34.02862167";"274 км";"";"";"";"halt";""
"049303";"1";"0";"26994869";"60.90200043";"34.06858826";"Подпорожье";"";"";"";"station";"049303"
"049407";"1";"0";"27453339";"60.95386887";"34.08350372";"Свирь";"";"";"";"station";"049407"
"049411";"1";"0";"27453380";"61.00967407";"34.3152771";"Челма";"";"";"";"halt";"049411"
"049430";"1";"0";"27453321";"60.92063522";"34.11110306";"284 км";"";"";"";"halt";""
"049500";"1";"0";"27453425";"61.10136414";"34.39463425";"Токари";"";"";"";"station";"049500"
"049515";"1";"0";"1424435459";"61.16147232";"34.40863419";"Ревсельга";"";"";"";"halt";"049515"
"049604";"1";"0";"1616428106";"61.48640442";"34.48803711";"Пяжиева Сельга";"";"";"";"station";"049604"
"049619";"1";"0";"1424435475";"61.26686859";"34.44344711";"Таржеполь";"";"";"";"halt";"049619"
"049623";"1";"0";"1616479843";"61.32153702";"34.44709015";"342 км";"";"";"";"halt";"049623"
"049638";"1";"1";"291254151";"61.20305634";"34.44647598";"Пай";"";"";"";"halt";""
"049708";"1";"0";"1424435417";"61.34807587";"34.45646667";"Ладва";"";"";"";"station";"049708"
"049712";"1";"0";"1248300952";"61.4241066";"34.44395447";"Нырки";"";"";"";"halt";"049712"
"049801";"1";"0";"1423646950";"61.5630188";"34.45046616";"Деревянка";"";"";"";"station";"049801"
"049816";"1";"0";"1424435444";"61.6464653";"34.48292923";"Орзега";"";"";"";"halt";"049816"
"049820";"1";"0";"244597585";"61.71597672";"34.47668457";"390 км";"";"";"";"halt";"049820"
"049835";"1";"0";"5271470770";"61.62091827";"34.47531128";"379 км";"";"";"";"halt";""
"049905";"1";"0";"27441677";"61.73946381";"34.44570541";"Онежский";"";"";"";"station";"049905"
"050009";"1";"0";"1987674960";"57.88600922";"34.06092834";"Бологое-Московское";"";"";"";"station";"050009"
"050029";"1";"0";"247693198";"57.93707275";"33.98028183";"Поплавенец";"";"";"";"halt";"050029"
"050033";"1";"0";"247693199";"57.95503235";"33.9533577";"310 км";"Гузятино";"";"";"halt";"050033"
"050048";"1";"0";"319537144";"57.90736389";"33.98350906";"Злино";"";"";"";"station";"050048"
"050052";"1";"0";"3755114228";"57.90991211";"33.91064835";"308 км";"";"";"";"halt";"050052"
"050067";"1";"0";"1580776370";"57.89748383";"34.03822708";"Родионовская";"";"";"";"halt";"050067"
"050071";"1";"0";"3755112557";"57.90250397";"34.01100159";"300 км";"";"";"";"halt";""
"050103";"1";"0";"413951943";"57.85691452";"34.11181641";"Бологое-Полоцкое";"Бологое-2";"";"";"halt";"050103"
"050300";"1";"0";"6437077470";"56.85573578";"37.37684631";"Савёлово";"";"";"";"station";"050300"
"050315";"1";"0";"3763350426";"56.9016304";"37.49496841";"139 км";"";"";"";"halt";"050315"
"050404";"1";"0";"6437077469";"56.94914246";"37.53482056";"Белый Городок";"";"";"";"station";""
"050419";"1";"0";"2230705511";"57.02453613";"37.58686447";"Стрельчиха";"";"";"";"halt";"050419"
"050423";"1";"0";"6437077468";"57.10112762";"37.68843079";"Скнятино";"";"";"";"halt";""
"050438";"1";"0";"2054201501";"57.17927551";"37.74699402";"Новокатово";"";"";"";"halt";"050438"
"050442";"1";"0";"2230705513";"57.20057678";"37.76501083";"177 км";"";"";"";"halt";"050442"
"050457";"1";"0";"3641635165";"57.23910141";"37.78775787";"Калязин Пост";"";"";"";"station";"050457"
"050461";"1";"0";"3763366557";"57.23845291";"37.89100266";"5 км";"";"";"";"halt";""
"050508";"1";"0";"6437077467";"57.23423386";"37.83067322";"Калязин";"";"";"";"station";""
"050512";"1";"0";"3763366558";"57.25916672";"37.92279816";"Чигирёво";"";"";"";"halt";"050512"
"050527";"1";"0";"1980659440";"57.29997635";"38.02438736";"Высокое";"";"";"";"halt";"050527"
"050546";"1";"0";"3767650690";"57.40540314";"38.19851303";"Красное";"";"";"";"halt";"050546"
"050550";"1";"0";"2874392923";"57.44834518";"38.26187515";"40 км";"";"";"";"station";"050550"
"050565";"1";"0";"1493596661";"57.37718582";"38.18492126";"29 км";"";"";"";"halt";""
"050570";"1";"0";"3763369352";"57.34425735";"38.14279175";"24 км";"";"";"";"halt";""
"050584";"1";"0";"3763358329";"57.27979279";"37.98750305";"12 км";"";"";"";"halt";""
"050601";"1";"0";"6437142140";"57.50727844";"38.32513428";"Углич";"";"";"";"station";""
"050713";"1";"0";"3763347794";"57.27640533";"37.66656494";"195 км";"";"";"";"halt";"050713"
"050724";"1";"0";"2027978084";"57.32333374";"37.61179733";"201 км";"";"";"";"halt";"050724"
"050724";"2";"0";"1097725730";"56.59976578";"32.13157272";"201 км";"";"";"";"halt";""
"050809";"1";"0";"2028389686";"57.35275269";"37.58969116";"Кашин";"";"";"";"station";"050809"
"050828";"1";"0";"3763350770";"57.4604187";"37.45369339";"220 км";"";"";"";"halt";"050828"
"050832";"1";"0";"6437077905";"57.49007034";"37.41311264";"Мюд";"";"";"";"halt";""
"050847";"1";"0";"3763348561";"57.54843521";"37.32945251";"233 км";"";"";"";"halt";"050847"
"051002";"1";"0";"6437077894";"57.58398819";"37.30608749";"Кесова Гора";"";"";"";"station";""
"051017";"1";"0";"305624768";"57.68144989";"37.23532867";"Золотково";"";"";"";"halt";"051017"
"051021";"1";"0";"3763350036";"57.72884369";"37.19952393";"254 км";"";"";"";"halt";"051021"
"051106";"1";"0";"6437077889";"57.78048706";"37.16191101";"Сонково";"";"";"";"station";""
"051110";"1";"0";"8274479833";"57.91186523";"37.08776855";"Дор";"";"";"";"station";"051110"
"051125";"1";"0";"8265885939";"57.85059357";"37.09776688";"273 км";"";"";"";"station";""
"051125";"1";"0";"1843632084";"56.19367599";"33.74645996";"273 км";"";"";"";"halt";""
"051214";"1";"0";"3427458034";"57.78897476";"37.02923965";"Бокарёво";"";"";"";"halt";"051214"
"051229";"1";"0";"223224870";"57.80208206";"36.91094589";"Подобино";"";"";"";"station";"051229"
"051233";"1";"0";"3762930252";"57.81153488";"36.79070282";"Вьюгово";"";"";"";"halt";"051233"
"051248";"1";"0";"3762952628";"58.12755966";"37.09111023";"303 км";"";"";"";"halt";""
"051252";"1";"0";"3762949613";"57.99312973";"37.10552216";"288 км";"";"";"";"halt";""
"051303";"1";"0";"941763508";"58.04874039";"37.10538483";"Красный Холм";"";"";"";"station";"051303"
"051318";"1";"0";"1386036191";"58.20546722";"37.06235504";"Остолопово";"";"";"";"station";"051318"
"051322";"1";"0";"3762947596";"58.2372551";"37.03899002";"316 км";"";"";"";"halt";""
"051411";"1";"0";"1385931451";"58.3564415";"36.94880676";"Овинище 2";"";"";"";"halt";"051411"
"051430";"1";"0";"1385974433";"58.44665909";"37.03011322";"Кесьма";"";"";"";"halt";"051430"
"051445";"1";"0";"348697377";"58.54452896";"37.06357956";"Ивановские Казармы";"358 км";"";"";"halt";"051445"
"051457";"1";"0";"348697389";"58.57712555";"37.08697128";"Приворот";"";"";"";"halt";"051457"
"051464";"1";"0";"1385931628";"58.60122299";"37.13354874";"366 км";"";"";"";"halt";"051464"
"051479";"1";"0";"348703240";"58.33924484";"37.02056503";"Овинище 1";"";"";"";"station";"051479"
"051483";"2";"0";"3762959776";"58.51328659";"37.06572723";"354 км";"";"";"";"halt";""
"051498";"1";"0";"3762959140";"58.4237175";"36.99098206";"342 км";"";"";"";"halt";""
"051604";"1";"0";"1385931449";"58.65412521";"37.26515579";"Весьегонск";"";"";"";"station";"051604"
"051708";"1";"0";"683777102";"57.79776764";"36.69460297";"Бежецк";"";"";"";"station";"051708"
"051712";"1";"0";"3762945041";"57.78530884";"36.59833527";"Сменово";"";"";"";"halt";"051712"
"051801";"1";"0";"3427458039";"57.78786087";"36.47229385";"Шишково";"";"";"";"halt";"051801"
"051816";"1";"0";"3427458035";"57.79183197";"36.30594254";"Викторово";"";"";"";"halt";"051816"
"051820";"1";"0";"3427458037";"57.78084564";"36.17770767";"Клевищенский";"";"";"";"halt";""
"051835";"1";"0";"2004538339";"57.77398682";"36.04971695";"Сидорково";"";"";"";"halt";"051835"
"051842";"1";"0";"3762944697";"57.79421997";"36.39068985";"154 км";"";"";"";"halt";""
"051854";"2";"0";"3762942221";"57.7861557";"35.97656631";"180 км";"";"";"";"halt";""
"051854";"2";"0";"1844696720";"56.09228516";"35.14232254";"180 км";"";"";"";"halt";""
"051905";"1";"0";"2012631427";"57.79706192";"35.86008072";"Максатиха";"";"";"";"station";"051905"
"051919";"1";"0";"3762932809";"57.81745529";"35.74859238";"Ручки";"";"";"";"halt";"051919"
"052005";"1";"0";"1002303473";"57.831604";"35.62595367";"Малышево";"";"";"";"station";"052005"
"052109";"1";"0";"2012552973";"57.85421371";"35.41332626";"Брусово";"";"";"";"station";"052109"
"052113";"1";"0";"3762939281";"57.84306335";"35.52447891";"207 км";"";"";"";"halt";""
"052202";"1";"0";"2012585358";"57.85992432";"35.268013";"Еремково";"";"";"";"station";"052202"
"052217";"1";"0";"3762936190";"57.87158585";"35.12649918";"Алфимово";"";"";"";"halt";"052217"
"052236";"1";"0";"2875657806";"57.87633514";"35.08693695";"234 км";"";"";"";"halt";""
"052306";"1";"0";"223224293";"57.88007355";"35.00733566";"Удомля";"";"";"";"station";"052306"
"052310";"1";"0";"3762908641";"57.89838028";"34.8910675";"Панышино";"";"";"";"halt";"052310"
"052325";"1";"0";"3762936168";"57.9040184";"34.84473038";"Дретунский Мост";"";"";"";"halt";""
"052414";"1";"0";"2004538335";"57.92361069";"34.6595726";"Дремуха";"";"";"";"halt";"052414"
"052429";"1";"0";"3762933567";"57.92303848";"34.56822586";"Красная Будка";"";"";"";"halt";"052429"
"052433";"1";"0";"3762908605";"57.9070015";"34.77031326";"Гриблянка";"";"";"";"station";"052433"
"052448";"1";"0";"223224692";"57.92632294";"34.60173035";"Березовский";"";"";"";"halt";""
"052503";"1";"0";"2012552976";"57.91785049";"34.52258301";"Мста";"";"";"";"station";"052503"
"052518";"1";"0";"3427458038";"57.92286682";"34.42456055";"Куликово";"";"";"";"halt";"052518"
"052522";"1";"0";"3762909454";"57.92334366";"34.39463806";"Брусничное";"";"";"";"halt";"052522"
"052607";"1";"0";"366854434";"57.93572617";"34.30593872";"Кафтино";"";"";"";"station";"052607"
"052626";"1";"0";"388628701";"57.91172028";"34.21242523";"Платищенка";"";"";"";"station";"052626"
"052630";"1";"0";"1842655924";"57.89696503";"34.18468475";"Подол";"";"";"";"halt";"052630"
"052645";"1";"0";"1131022677";"57.88540268";"34.12467194";"Борки";"";"";"";"halt";""
"052700";"1";"0";"366587483";"57.88204956";"34.10984039";"Медведево";"";"";"";"station";"052700"
"052804";"1";"0";"976920486";"57.85329819";"34.15272141";"Бушевец";"";"";"";"station";"052804"
"052819";"1";"0";"3762458184";"57.82335663";"34.2026329";"Петерсоновка";"331 км";"";"";"halt";""
"052823";"1";"0";"366580015";"57.80512238";"34.23328018";"Бочановка";"";"";"";"halt";"052823"
"052838";"1";"0";"2036924119";"57.76372528";"34.29112244";"Костромцовская";"";"";"";"halt";"052838"
"052842";"1";"0";"366579792";"57.87963104";"34.08422089";"Веерное депо";"";"";"";"halt";"052842"
"052857";"1";"0";"2036924202";"57.73552704";"34.31415939";"Соболево";"";"";"";"halt";"052857"
"053008";"1";"0";"366584404";"57.98548126";"33.90751266";"Березайка";"";"";"";"station";"053008"
"053012";"1";"0";"2014288572";"58.01975632";"33.85206223";"301 км";"";"";"";"halt";"053012"
"053101";"1";"0";"2014288562";"58.04511642";"33.80808258";"Алёшинка";"";"";"";"station";"053101"
"053116";"1";"0";"2014288565";"58.0771904";"33.75591278";"Заключье";"";"";"";"halt";"053116"
"053210";"1";"0";"2004992299";"58.12828064";"33.66892624";"284 км";"";"";"";"halt";"053210"
"053239";"1";"0";"1580881780";"58.17153168";"33.59174347";"Селище";"";"";"";"halt";"053239"
"053243";"1";"0";"1580883836";"58.20145416";"33.5516243";"274 км";"";"";"";"halt";"053243"
"053258";"1";"0";"366584095";"58.10531998";"33.71398163";"Лыкошино";"";"";"";"halt";"053258"
"053309";"1";"0";"600441425";"58.23343277";"33.50881577";"Угловка";"";"";"";"station";"053309"
"053313";"1";"0";"599215765";"58.28356552";"33.62636948";"Корсаковская";"";"";"";"halt";"053313"
"053328";"1";"0";"1584732160";"58.2947464";"33.42360687";"Яблоновка";"";"";"";"halt";"053328"
"053332";"1";"0";"2004992286";"58.326828";"33.3767128";"256 км";"";"";"";"halt";"053332"
"053417";"1";"0";"287267651";"58.32562256";"33.74491119";"Никитинская";"";"";"";"halt";"053417"
"053436";"1";"0";"599215762";"58.3091507";"33.70278931";"Травково";"";"";"";"halt";"053436"
"053506";"1";"0";"644065352";"58.38906479";"33.88961411";"Боровичи";"";"";"";"station";"053506"
"053510";"1";"0";"2473147270";"58.65021515";"30.18439865";"27 км";"";"";"";"halt";""
"053703";"1";"0";"1987706085";"58.37192535";"33.30065536";"Окуловка";"";"";"";"station";"053703"
"053722";"1";"0";"1584751747";"58.43159866";"33.16966248";"Заозерье";"";"";"";"halt";"053722"
"053741";"2";"0";"3755429104";"58.85419083";"34.75283432";"246 км";"";"";"";"halt";""
"053900";"1";"1";"147456158";"58.40924454";"33.30360413";"Поддубье";"";"";"";"station";""
"053900";"1";"0";"1270796082";"58.40837097";"33.30223846";"Поддубье";"";"";"";"station";""
"053924";"1";"0";"1232609380";"58.44804764";"33.38231659";"Кулотино";"";"";"";"station";"053924"
"054104";"1";"0";"1627836924";"58.48704529";"33.47649002";"Котово";"";"";"";"station";"054104"
"054227";"1";"0";"1554566851";"58.54580688";"33.47653961";"Топорок";"";"";"";"station";"054227"
"054320";"1";"0";"2624128216";"58.643116";"33.42861557";"Вомпе";"";"";"";"station";"054320"
"054405";"2";"0";"5719880348";"58.73015213";"33.46402359";"Зарубинская";"";"";"";"station";""
"054513";"1";"0";"5719880398";"58.81423187";"33.40326309";"Любытино";"";"";"";"station";""
"054551";"2";"0";"5719880348";"58.73015213";"33.46402359";"Зарубинская";"";"";"";"station";""
"054800";"1";"0";"384453213";"57.91036987";"33.88234329";"Гузятино";"";"";"";"station";"054800"
"054903";"1";"0";"319537134";"57.90932083";"33.74081039";"Нарачино";"";"";"";"station";"054903"
"055003";"1";"0";"5692464843";"57.91897202";"33.63330841";"Едрово";"";"";"";"station";""
"055018";"1";"0";"708242196";"57.92605972";"33.54686737";"Рядчино";"";"";"";"halt";"055018"
"055107";"1";"0";"3755113947";"57.9336586";"33.42577362";"Добывалово";"";"";"";"station";"055107"
"055111";"1";"0";"1430717209";"57.95248413";"33.31072617";"Чернушки";"";"";"";"halt";"055111"
"055130";"1";"0";"287209315";"57.9450531";"33.06732941";"356 км";"";"";"";"halt";""
"055200";"1";"0";"5692464841";"57.96985626";"33.24495697";"Валдай";"";"";"";"station";""
"055478";"1";"0";"287210839";"58.22911453";"32.60424423";"53 км";"";"";"";"halt";"055478"
"055501";"1";"0";"3166276281";"58.23693085";"32.52453995";"Крестцы";"";"";"";"station";"055501"
"055605";"1";"0";"2431181284";"57.9394989";"32.99049759";"Дворец";"";"";"";"station";"055605"
"055624";"1";"0";"287209323";"57.94757462";"32.90077972";"371 км";"";"";"";"halt";""
"055713";"1";"0";"3755118478";"57.93351364";"32.55259323";"Муры";"";"";"";"halt";"055713"
"055728";"1";"0";"287209355";"57.96960068";"32.69862747";"Любница";"";"";"";"station";"055728"
"055732";"1";"0";"3755118957";"57.96217728";"32.60630035";"391 км";"";"";"";"halt";""
"055802";"1";"0";"5692464840";"57.92140198";"32.39925385";"Лычково";"";"";"";"station";""
"055802";"1";"1";"657349397";"57.92121506";"32.39875793";"Лычково";"";"";"";"station";""
"055817";"1";"0";"3755119705";"57.92557526";"32.30597687";"Выдерки";"";"";"";"halt";"055817"
"055906";"1";"0";"5692464821";"57.92411423";"32.22147751";"Кневицы";"";"";"";"station";""
"056010";"1";"0";"3755119594";"57.93237305";"31.97166634";"Заход";"";"";"";"halt";"056010"
"056025";"1";"0";"3755119593";"57.92527008";"32.05768585";"Беглово";"";"";"";"station";"056025"
"056101";"1";"0";"2394102784";"57.94176483";"31.83018875";"Пола";"";"";"";"station";"056101"
"056129";"1";"0";"3755112199";"57.94682693";"31.69177818";"452 км";"";"";"";"halt";"056129"
"056203";"1";"0";"5692464811";"57.96272278";"31.61098862";"Парфино";"";"";"";"station";""
"056218";"1";"0";"4758763150";"57.99159241";"31.46839905";"Редья";"";"";"";"halt";""
"056222";"1";"0";"3755123312";"57.98428345";"31.50505066";"459 км";"";"";"";"halt";""
"056307";"1";"0";"5692464755";"58.00028992";"31.34474754";"Старая Русса";"";"";"";"station";""
"056504";"1";"0";"5692464754";"57.93114853";"30.7080307";"Волот";"";"";"";"station";""
"056608";"1";"0";"3964449890";"57.89390945";"30.34538078";"Морино";"";"";"";"station";"056608"
"056627";"1";"0";"3750358584";"57.86912155";"30.22484207";"539 км";"";"";"";"halt";"056627"
"056631";"1";"1";"308940409";"57.85669327";"30.14892387";"Полонка";"";"";"";"station";""
"056701";"1";"0";"147130344";"57.82389069";"29.96135712";"Дно";"";"";"";"station";"056701"
"056720";"1";"0";"3750347866";"57.84836197";"30.02094078";"241 км";"";"";"";"halt";"056720"
"056735";"1";"0";"3750348348";"57.86944962";"30.04304504";"238 км";"";"";"";"halt";"056735"
"056740";"1";"0";"3750347958";"57.89507294";"30.06443214";"Гачки";"";"";"";"station";"056740"
"056773";"1";"0";"3750342920";"57.84379196";"30.01610565";"242 км";"";"";"";"halt";""
"056909";"1";"0";"2136881314";"56.6543045";"30.1856842";"Самолуково";"";"";"";"station";"056909"
"056913";"1";"0";"27079101";"56.74562454";"30.19021606";"Стримовичи";"";"";"";"station";"056913"
"056928";"1";"0";"3750363908";"56.71298218";"30.19907379";"379 км";"";"";"";"halt";""
"056932";"1";"0";"27079076";"56.68563461";"30.20019341";"382 км";"";"";"";"halt";""
"056947";"1";"0";"3750363538";"56.79069519";"30.16814995";"371 км";"";"";"";"halt";""
"057009";"1";"0";"897155468";"56.82786942";"30.15338707";"Локня";"";"";"";"station";"057009"
"057013";"1";"0";"2454080941";"56.89339447";"30.07818413";"Тигощи";"";"";"";"station";"057013"
"057028";"1";"0";"1466785004";"56.93841934";"29.99312401";"Загоскино";"";"";"";"station";"057028"
"057102";"1";"1";"173759549";"57.0062561";"29.91682625";"Сущево";"";"";"";"station";""
"057102";"1";"0";"885274313";"57.00627518";"29.91727257";"Сущево";"Suschtschevo";"";"";"station";"057102"
"057117";"1";"0";"3750362941";"57.06438446";"29.90723991";"334 км";"";"";"";"halt";"057117"
"057121";"1";"0";"1870238083";"57.10769272";"29.89630127";"Лозовицы";"";"";"";"station";"057121"
"057136";"1";"0";"3750362796";"57.13655853";"29.88626862";"326 км";"";"";"";"halt";"057136"
"057140";"1";"0";"1862930206";"57.19509888";"29.89878273";"Ашево";"";"";"";"station";"057140"
"057155";"2";"0";"3750542291";"56.32627487";"30.51669502";"314 км";"";"";"";"halt";""
"057155";"1";"0";"3750360312";"57.23974228";"29.9107933";"314 км";"";"";"";"halt";"057155"
"057164";"1";"0";"3750362940";"57.08901596";"29.90703583";"331 км";"";"";"";"halt";"057164"
"057206";"1";"0";"1852713289";"57.47335815";"29.94943237";"Судома";"";"";"";"station";"057206"
"057314";"1";"0";"1855664245";"57.38146973";"29.93431282";"Плотовец";"";"";"";"station";"057314"
"057329";"1";"0";"3750361152";"57.34691238";"29.9256649";"301 км";"";"";"";"halt";"057329"
"057333";"1";"0";"1386285389";"57.28573608";"29.89992714";"Чихачёво";"";"";"";"station";"057333"
"057403";"1";"0";"147132526";"57.55257034";"29.94346619";"Дедовичи";"";"";"";"station";"057403"
"057418";"1";"0";"3750361882";"57.59343338";"29.94556236";"272 км";"";"";"";"halt";"057418"
"057422";"1";"0";"1851458386";"57.63929367";"29.93953133";"Бакач";"";"";"";"station";"057422"
"057437";"1";"0";"3750360307";"57.67064667";"29.94979668";"264 км";"";"";"";"halt";"057437"
"057441";"1";"0";"1921930448";"57.73580551";"29.95750618";"Вязье";"";"";"";"station";"057441"
"057456";"1";"0";"3750360446";"57.71923447";"29.96211433";"258 км";"";"";"";"halt";"057456"
"057460";"1";"0";"3750353701";"57.61226273";"29.94002151";"270 км";"";"";"";"halt";""
"057475";"1";"0";"3750360243";"57.77541733";"29.95502853";"252 км";"";"";"";"halt";""
"057600";"1";"0";"5469258869";"57.72822189";"29.16112709";"Подсевы";"";"";"";"station";""
"057615";"1";"0";"3750342653";"57.7285347";"29.25908089";"Лунёво";"";"";"";"station";"057615"
"057626";"1";"0";"3750342258";"57.74159622";"29.36195755";"Сосынье";"";"";"";"halt";"057626"
